id,name,alt_name,country_id,is_active,created_at,updated_at,lat,long
73,Abbigeri,NULL,76,TRUE,2024-06-25 0:00:00,2024-06-25 0:00:00,13.0767,77.525
74,Abbigeri,NULL,76,TRUE,2024-06-25 0:00:00,2024-06-25 0:00:00,15.5862,75.7502
81,Abdullahnagar,NULL,76,TRUE,2024-06-25 0:00:00,2024-06-25 0:00:00,25.7683,87.5557
105,Abhayapuri,NULL,76,TRUE,2024-06-25 0:00:00,2024-06-25 0:00:00,26.3225,90.6853
106,Abhia,NULL,76,TRUE,2024-06-25 0:00:00,2024-06-25 0:00:00,25.3499,87.1427
107,Abhwar,NULL,76,TRUE,2024-06-25 0:00:00,2024-06-25 0:00:00,26.174,86.6324
117,Abiramam,NULL,76,TRUE,2024-06-25 0:00:00,2024-06-25 0:00:00,9.4423,78.4399
120,Ablu,NULL,76,TRUE,2024-06-25 0:00:00,2024-06-25 0:00:00,30.3391,74.7879
122,Abohar,NULL,76,TRUE,2024-06-25 0:00:00,2024-06-25 0:00:00,30.1334,74.2001
146,Abu,NULL,76,TRUE,2024-06-25 0:00:00,2024-06-25 0:00:00,24.5925,72.7083
208,Achaljamu,NULL,76,TRUE,2024-06-25 0:00:00,2024-06-25 0:00:00,24.0243,85.8306
209,Achampet,NULL,76,TRUE,2024-06-25 0:00:00,2024-06-25 0:00:00,16.6299,80.1213
210,Achankovil,NULL,76,TRUE,2024-06-25 0:00:00,2024-06-25 0:00:00,8.9667,77.1431
211,Acharipallam,NULL,76,TRUE,2024-06-25 0:00:00,2024-06-25 0:00:00,8.17,77.3698
213,Achchampeta,NULL,76,TRUE,2024-06-25 0:00:00,2024-06-25 0:00:00,17.0941,82.3099
214,Achchippatti,NULL,76,TRUE,2024-06-25 0:00:00,2024-06-25 0:00:00,10.6989,77.015
217,Achhnera,NULL,76,TRUE,2024-06-25 0:00:00,2024-06-25 0:00:00,27.18,77.77
274,Adalaj,NULL,76,TRUE,2024-06-25 0:00:00,2024-06-25 0:00:00,23.17,72.58
276,Adalhat,NULL,76,TRUE,2024-06-25 0:00:00,2024-06-25 0:00:00,25.282,82.9563
277,Adalpur,NULL,76,TRUE,2024-06-25 0:00:00,2024-06-25 0:00:00,26.191,86.0239
278,Adamankottai,NULL,76,TRUE,2024-06-25 0:00:00,2024-06-25 0:00:00,12.0742,78.1237
281,Adampur,NULL,76,TRUE,2024-06-25 0:00:00,2024-06-25 0:00:00,31.4322,75.7148
287,Addanki,NULL,76,TRUE,2024-06-25 0:00:00,2024-06-25 0:00:00,15.8167,79.9833
304,Adesar,NULL,76,TRUE,2024-06-25 0:00:00,2024-06-25 0:00:00,23.5589,70.9833
309,Adigappadi,NULL,76,TRUE,2024-06-25 0:00:00,2024-06-25 0:00:00,12.1459,78.0946
310,Adigaratti,NULL,76,TRUE,2024-06-25 0:00:00,2024-06-25 0:00:00,11.3357,76.6971
311,Adigoppula,NULL,76,TRUE,2024-06-25 0:00:00,2024-06-25 0:00:00,16.4402,79.6235
313,Adilabad,NULL,76,TRUE,2024-06-25 0:00:00,2024-06-25 0:00:00,19.6667,78.5333
317,Adivala,NULL,76,TRUE,2024-06-25 0:00:00,2024-06-25 0:00:00,13.9131,76.6619
318,Adiyakkamangalam,NULL,76,TRUE,2024-06-25 0:00:00,2024-06-25 0:00:00,10.7626,79.6775
334,Adoni,NULL,76,TRUE,2024-06-25 0:00:00,2024-06-25 0:00:00,15.6279,77.2749
336,Adra,NULL,76,TRUE,2024-06-25 0:00:00,2024-06-25 0:00:00,23.5,86.67
344,Adukam,NULL,76,TRUE,2024-06-25 0:00:00,2024-06-25 0:00:00,9.7954,76.8456
346,Aduru,NULL,76,TRUE,2024-06-25 0:00:00,2024-06-25 0:00:00,12.5583,75.1357
348,Advi Devalpalli,NULL,76,TRUE,2024-06-25 0:00:00,2024-06-25 0:00:00,16.6631,79.5139
376,Afzala,NULL,76,TRUE,2024-06-25 0:00:00,2024-06-25 0:00:00,25.9319,86.2293
377,Afzalpur,NULL,76,TRUE,2024-06-25 0:00:00,2024-06-25 0:00:00,17.2011,76.3611
378,Agadallanka,NULL,76,TRUE,2024-06-25 0:00:00,2024-06-25 0:00:00,16.7123,81.2732
380,Agadi,NULL,76,TRUE,2024-06-25 0:00:00,2024-06-25 0:00:00,14.819,75.469
388,Agar,NULL,76,TRUE,2024-06-25 0:00:00,2024-06-25 0:00:00,23.7118,76.0157
389,Agaram,NULL,76,TRUE,2024-06-25 0:00:00,2024-06-25 0:00:00,10.4433,77.9485
392,Agarpur,NULL,76,TRUE,2024-06-25 0:00:00,2024-06-25 0:00:00,25.1957,87.0423
393,Agartala,NULL,76,TRUE,2024-06-25 0:00:00,2024-06-25 0:00:00,23.8314,91.2869
417,Aginiparru,NULL,76,TRUE,2024-06-25 0:00:00,2024-06-25 0:00:00,16.6817,80.7839
424,Agiripalle,NULL,76,TRUE,2024-06-25 0:00:00,2024-06-25 0:00:00,16.6833,80.65
436,Agra,NULL,76,TRUE,2024-06-25 0:00:00,2024-06-25 0:00:00,27.18,78.02
500,Ahirauliya,NULL,76,TRUE,2024-06-25 0:00:00,2024-06-25 0:00:00,26.5091,84.7999
501,Ahiro,NULL,76,TRUE,2024-06-25 0:00:00,2024-06-25 0:00:00,24.9192,87.1054
505,Ahmadabad,NULL,76,TRUE,2024-06-25 0:00:00,2024-06-25 0:00:00,25.3019,87.7938
507,Ahmadnagar,NULL,76,TRUE,2024-06-25 0:00:00,2024-06-25 0:00:00,19.08,74.73
508,Ahmadpur,NULL,76,TRUE,2024-06-25 0:00:00,2024-06-25 0:00:00,18.7,76.9333
509,Ahmadpur,NULL,76,TRUE,2024-06-25 0:00:00,2024-06-25 0:00:00,23.8365,87.6912
512,Ahmedabad,NULL,76,TRUE,2024-06-25 0:00:00,2024-06-25 0:00:00,23.0225,72.5714
516,Ahor,NULL,76,TRUE,2024-06-25 0:00:00,2024-06-25 0:00:00,25.367,72.783
526,Ahwa,NULL,76,TRUE,2024-06-25 0:00:00,2024-06-25 0:00:00,20.75,73.6833
540,Aikaranad,NULL,76,TRUE,2024-06-25 0:00:00,2024-06-25 0:00:00,10.0002,76.455
607,Ainapur,NULL,76,TRUE,2024-06-25 0:00:00,2024-06-25 0:00:00,16.48,74.78
645,Aivanallur,NULL,76,TRUE,2024-06-25 0:00:00,2024-06-25 0:00:00,11.2161,79.5392
648,Aiyampuzha,NULL,76,TRUE,2024-06-25 0:00:00,2024-06-25 0:00:00,10.25,76.4667
649,Aiyappan Kovil,NULL,76,TRUE,2024-06-25 0:00:00,2024-06-25 0:00:00,9.7158,77.0333
653,Aizawl,NULL,76,TRUE,2024-06-25 0:00:00,2024-06-25 0:00:00,23.7272,92.7178
664,Ajaigarh,NULL,76,TRUE,2024-06-25 0:00:00,2024-06-25 0:00:00,24.8988,80.2592
665,Ajas,NULL,76,TRUE,2024-06-25 0:00:00,2024-06-25 0:00:00,34.3316,74.6801
671,Ajjampur,NULL,76,TRUE,2024-06-25 0:00:00,2024-06-25 0:00:00,13.7279,76.0068
672,Ajjanahalli,NULL,76,TRUE,2024-06-25 0:00:00,2024-06-25 0:00:00,12.0376,77.8138
673,Ajjipuram,NULL,76,TRUE,2024-06-25 0:00:00,2024-06-25 0:00:00,12.0457,77.3532
675,Ajmer,NULL,76,TRUE,2024-06-25 0:00:00,2024-06-25 0:00:00,26.4499,74.6399
676,Ajnala,NULL,76,TRUE,2024-06-25 0:00:00,2024-06-25 0:00:00,31.84,74.76
677,Ajodhya,NULL,76,TRUE,2024-06-25 0:00:00,2024-06-25 0:00:00,26.7992,82.2044
681,Akalapura,NULL,76,TRUE,2024-06-25 0:00:00,2024-06-25 0:00:00,13.4852,77.4621
682,Akalgarh,NULL,76,TRUE,2024-06-25 0:00:00,2024-06-25 0:00:00,30.8019,75.8582
683,Akambadam,NULL,76,TRUE,2024-06-25 0:00:00,2024-06-25 0:00:00,11.1,76.3167
684,Akanavaritota,NULL,76,TRUE,2024-06-25 0:00:00,2024-06-25 0:00:00,16.4141,81.6367
688,Akbarpur,NULL,76,TRUE,2024-06-25 0:00:00,2024-06-25 0:00:00,26.4333,82.5403
689,Akbarpur,NULL,76,TRUE,2024-06-25 0:00:00,2024-06-25 0:00:00,24.6351,83.9642
705,Akhnur,NULL,76,TRUE,2024-06-25 0:00:00,2024-06-25 0:00:00,32.87,74.73
715,Akividu,NULL,76,TRUE,2024-06-25 0:00:00,2024-06-25 0:00:00,16.5823,81.3811
717,Akkattettar,NULL,76,TRUE,2024-06-25 0:00:00,2024-06-25 0:00:00,10.8167,76.65
720,Aklera,NULL,76,TRUE,2024-06-25 0:00:00,2024-06-25 0:00:00,24.42,76.57
722,Aklvidu,NULL,76,TRUE,2024-06-25 0:00:00,2024-06-25 0:00:00,16.6,81.3833
723,Akola,NULL,76,TRUE,2024-06-25 0:00:00,2024-06-25 0:00:00,20.7,77
724,Akola,NULL,76,TRUE,2024-06-25 0:00:00,2024-06-25 0:00:00,27.0656,77.8808
727,Akora,NULL,76,TRUE,2024-06-25 0:00:00,2024-06-25 0:00:00,26.4721,78.7989
729,Akot,NULL,76,TRUE,2024-06-25 0:00:00,2024-06-25 0:00:00,21.1,77.06
925,Alagappapuram,NULL,76,TRUE,2024-06-25 0:00:00,2024-06-25 0:00:00,8.1468,77.5413
926,Alagarai,NULL,76,TRUE,2024-06-25 0:00:00,2024-06-25 0:00:00,10.9826,78.3891
944,Alamadi,NULL,76,TRUE,2024-06-25 0:00:00,2024-06-25 0:00:00,13.1097,80.0972
950,Alamnagar,NULL,76,TRUE,2024-06-25 0:00:00,2024-06-25 0:00:00,25.561,86.9014
957,Alampalaiyam,NULL,76,TRUE,2024-06-25 0:00:00,2024-06-25 0:00:00,11.3635,77.7677
958,Alampur,NULL,76,TRUE,2024-06-25 0:00:00,2024-06-25 0:00:00,15.8793,78.1334
959,Alampur,NULL,76,TRUE,2024-06-25 0:00:00,2024-06-25 0:00:00,26.0251,78.797
960,Alampur,NULL,76,TRUE,2024-06-25 0:00:00,2024-06-25 0:00:00,24.8721,83.8829
961,Alampur Gonpura,NULL,76,TRUE,2024-06-25 0:00:00,2024-06-25 0:00:00,25.5404,85.0511
962,Alamuru,NULL,76,TRUE,2024-06-25 0:00:00,2024-06-25 0:00:00,16.7833,81.9
963,Aland,NULL,76,TRUE,2024-06-25 0:00:00,2024-06-25 0:00:00,17.5642,76.5685
964,Alandatte,NULL,76,TRUE,2024-06-25 0:00:00,2024-06-25 0:00:00,12.191,75.4673
966,Alanganallur,NULL,76,TRUE,2024-06-25 0:00:00,2024-06-25 0:00:00,10.047,78.0903
967,Alangayam,NULL,76,TRUE,2024-06-25 0:00:00,2024-06-25 0:00:00,12.6223,78.7521
968,Alangudi,NULL,76,TRUE,2024-06-25 0:00:00,2024-06-25 0:00:00,10.3604,78.9779
969,Alangulam,NULL,76,TRUE,2024-06-25 0:00:00,2024-06-25 0:00:00,8.864,77.4994
975,Alasandigutta,NULL,76,TRUE,2024-06-25 0:00:00,2024-06-25 0:00:00,15.6244,77.2731
983,Alattur,NULL,76,TRUE,2024-06-25 0:00:00,2024-06-25 0:00:00,10.6481,76.5383
985,Alauli,NULL,76,TRUE,2024-06-25 0:00:00,2024-06-25 0:00:00,25.644,86.4065
989,Alawalpur,NULL,76,TRUE,2024-06-25 0:00:00,2024-06-25 0:00:00,31.4316,75.6561
990,Alawandi,NULL,76,TRUE,2024-06-25 0:00:00,2024-06-25 0:00:00,15.2303,75.9801
991,Alayaman,NULL,76,TRUE,2024-06-25 0:00:00,2024-06-25 0:00:00,8.8843,76.9653
1104,Alengad,NULL,76,TRUE,2024-06-25 0:00:00,2024-06-25 0:00:00,10.1,76.3
1114,Alewah,NULL,76,TRUE,2024-06-25 0:00:00,2024-06-25 0:00:00,29.4767,76.4522
1157,Algun,NULL,76,TRUE,2024-06-25 0:00:00,2024-06-25 0:00:00,31.2795,74.6517
1180,Aliganj,NULL,76,TRUE,2024-06-25 0:00:00,2024-06-25 0:00:00,24.9365,85.925
1181,Aligarh,NULL,76,TRUE,2024-06-25 0:00:00,2024-06-25 0:00:00,27.88,78.08
1188,Alipur,NULL,76,TRUE,2024-06-25 0:00:00,2024-06-25 0:00:00,18.8621,78.8754
1189,Alipur Duar,NULL,76,TRUE,2024-06-25 0:00:00,2024-06-25 0:00:00,26.489,89.527
1194,Aliyabad,NULL,76,TRUE,2024-06-25 0:00:00,2024-06-25 0:00:00,12.6317,79.2164
1203,Allagadda,NULL,76,TRUE,2024-06-25 0:00:00,2024-06-25 0:00:00,15.1322,78.5138
1205,Allahdurg,NULL,76,TRUE,2024-06-25 0:00:00,2024-06-25 0:00:00,17.9667,77.9167
1206,Allahpur,NULL,76,TRUE,2024-06-25 0:00:00,2024-06-25 0:00:00,26.3434,77.8195
1217,Alleppey,NULL,76,TRUE,2024-06-25 0:00:00,2024-06-25 0:00:00,9.49,76.33
1221,Allinagaram,NULL,76,TRUE,2024-06-25 0:00:00,2024-06-25 0:00:00,10.0119,77.4786
1228,Allur,NULL,76,TRUE,2024-06-25 0:00:00,2024-06-25 0:00:00,14.68,80.06
1229,Alluru,NULL,76,TRUE,2024-06-25 0:00:00,2024-06-25 0:00:00,15.1336,78.4975
1243,Almel,NULL,76,TRUE,2024-06-25 0:00:00,2024-06-25 0:00:00,16.92,76.24
1260,Almora,NULL,76,TRUE,2024-06-25 0:00:00,2024-06-25 0:00:00,29.5971,79.6591
1265,Alnavar,NULL,76,TRUE,2024-06-25 0:00:00,2024-06-25 0:00:00,15.4273,74.7411
1291,Alta,NULL,76,TRUE,2024-06-25 0:00:00,2024-06-25 0:00:00,17.25,74.57
1369,Alukkuli,NULL,76,TRUE,2024-06-25 0:00:00,2024-06-25 0:00:00,11.4458,77.3574
1372,Alur,NULL,76,TRUE,2024-06-25 0:00:00,2024-06-25 0:00:00,15.3942,77.2264
1385,Alwa Tirunagari,NULL,76,TRUE,2024-06-25 0:00:00,2024-06-25 0:00:00,8.61,77.94
1386,Alwal,NULL,76,TRUE,2024-06-25 0:00:00,2024-06-25 0:00:00,17.5047,78.5038
1387,Alwar,NULL,76,TRUE,2024-06-25 0:00:00,2024-06-25 0:00:00,27.5498,76.6355
1388,Alwarkurichchi,NULL,76,TRUE,2024-06-25 0:00:00,2024-06-25 0:00:00,8.7838,77.3952
1389,Alwaye,NULL,76,TRUE,2024-06-25 0:00:00,2024-06-25 0:00:00,10.1167,76.35
1400,Amaha,NULL,76,TRUE,2024-06-25 0:00:00,2024-06-25 0:00:00,26.1284,86.7998
1404,Amala,NULL,76,TRUE,2024-06-25 0:00:00,2024-06-25 0:00:00,9.859,76.8112
1405,Amalapuram,NULL,76,TRUE,2024-06-25 0:00:00,2024-06-25 0:00:00,16.5787,82.0061
1408,Amalner,NULL,76,TRUE,2024-06-25 0:00:00,2024-06-25 0:00:00,21.05,75.05
1413,Amangal,NULL,76,TRUE,2024-06-25 0:00:00,2024-06-25 0:00:00,16.8499,78.5327
1414,Amanganj,NULL,76,TRUE,2024-06-25 0:00:00,2024-06-25 0:00:00,24.4266,80.0358
1422,Amarapuuram,NULL,76,TRUE,2024-06-25 0:00:00,2024-06-25 0:00:00,14.1333,76.9833
1423,Amaravati,NULL,76,TRUE,2024-06-25 0:00:00,2024-06-25 0:00:00,16.5131,80.5165
1424,Amaravati,NULL,76,TRUE,2024-06-25 0:00:00,2024-06-25 0:00:00,16.573,80.358
1425,Amarchinta,NULL,76,TRUE,2024-06-25 0:00:00,2024-06-25 0:00:00,16.374,77.7729
1428,Amari,NULL,76,TRUE,2024-06-25 0:00:00,2024-06-25 0:00:00,25.7179,86.0839
1430,Amarpatan,NULL,76,TRUE,2024-06-25 0:00:00,2024-06-25 0:00:00,24.3137,80.977
1431,Amarpur,NULL,76,TRUE,2024-06-25 0:00:00,2024-06-25 0:00:00,25.0397,86.9025
1432,Amarpur,NULL,76,TRUE,2024-06-25 0:00:00,2024-06-25 0:00:00,23.53,91.64
1433,Amarpura,NULL,76,TRUE,2024-06-25 0:00:00,2024-06-25 0:00:00,26.3667,73.9833
1434,Amarwa Khurd,NULL,76,TRUE,2024-06-25 0:00:00,2024-06-25 0:00:00,26.8333,84.25
1435,Amarwara,NULL,76,TRUE,2024-06-25 0:00:00,2024-06-25 0:00:00,22.2978,79.1694
1448,Amauna,NULL,76,TRUE,2024-06-25 0:00:00,2024-06-25 0:00:00,25.0531,84.5169
1451,Amayan,NULL,76,TRUE,2024-06-25 0:00:00,2024-06-25 0:00:00,26.3205,78.7581
1452,Amba Icharua,NULL,76,TRUE,2024-06-25 0:00:00,2024-06-25 0:00:00,25.614,86.4258
1460,Ambajogai,NULL,76,TRUE,2024-06-25 0:00:00,2024-06-25 0:00:00,18.73,76.38
1462,Ambala,NULL,76,TRUE,2024-06-25 0:00:00,2024-06-25 0:00:00,30.38,76.78
1463,Ambala,NULL,76,TRUE,2024-06-25 0:00:00,2024-06-25 0:00:00,17.65,79.05
1471,Ambalanur,NULL,76,TRUE,2024-06-25 0:00:00,2024-06-25 0:00:00,16.59,75.96
1479,Ambalavayal,NULL,76,TRUE,2024-06-25 0:00:00,2024-06-25 0:00:00,11.619,76.2102
1484,Ambara,NULL,76,TRUE,2024-06-25 0:00:00,2024-06-25 0:00:00,22.1902,78.6708
1493,Ambasamudram,NULL,76,TRUE,2024-06-25 0:00:00,2024-06-25 0:00:00,8.7037,77.4527
1525,Ambattur,NULL,76,TRUE,2024-06-25 0:00:00,2024-06-25 0:00:00,13.1143,80.1548
1526,Ambatturai,NULL,76,TRUE,2024-06-25 0:00:00,2024-06-25 0:00:00,10.2603,77.9303
1532,Ambhua,NULL,76,TRUE,2024-06-25 0:00:00,2024-06-25 0:00:00,24.5568,87.8651
1533,Ambikapur,NULL,76,TRUE,2024-06-25 0:00:00,2024-06-25 0:00:00,23.12,83.2
1660,Amgachia,NULL,76,TRUE,2024-06-25 0:00:00,2024-06-25 0:00:00,22.4156,88.3051
1661,Amha,NULL,76,TRUE,2024-06-25 0:00:00,2024-06-25 0:00:00,26.0518,86.6906
1668,Amiawar,NULL,76,TRUE,2024-06-25 0:00:00,2024-06-25 0:00:00,25.0405,84.3096
1671,Amingaon,NULL,76,TRUE,2024-06-25 0:00:00,2024-06-25 0:00:00,26.23,91.67
1672,Amingarh,NULL,76,TRUE,2024-06-25 0:00:00,2024-06-25 0:00:00,16.0572,75.9489
1673,Aminpur,NULL,76,TRUE,2024-06-25 0:00:00,2024-06-25 0:00:00,17.5241,78.3242
1680,Amjhar,NULL,76,TRUE,2024-06-25 0:00:00,2024-06-25 0:00:00,25.0641,84.5591
1681,Amjhera,NULL,76,TRUE,2024-06-25 0:00:00,2024-06-25 0:00:00,22.5578,75.1185
1682,Amla,NULL,76,TRUE,2024-06-25 0:00:00,2024-06-25 0:00:00,21.9248,78.1279
1685,Ammanabrolu,NULL,76,TRUE,2024-06-25 0:00:00,2024-06-25 0:00:00,15.5802,80.1488
1687,Ammapettai,NULL,76,TRUE,2024-06-25 0:00:00,2024-06-25 0:00:00,10.7948,79.3199
1688,Ammapettai,NULL,76,TRUE,2024-06-25 0:00:00,2024-06-25 0:00:00,11.6197,77.7426
1689,Ammavarikuppam,NULL,76,TRUE,2024-06-25 0:00:00,2024-06-25 0:00:00,13.1784,79.4169
1692,Ammur,NULL,76,TRUE,2024-06-25 0:00:00,2024-06-25 0:00:00,12.975,79.3628
1695,Amodei,NULL,76,TRUE,2024-06-25 0:00:00,2024-06-25 0:00:00,26.8975,84.8182
1739,Amrabad,NULL,76,TRUE,2024-06-25 0:00:00,2024-06-25 0:00:00,16.3833,78.8333
1740,Amravati,NULL,76,TRUE,2024-06-25 0:00:00,2024-06-25 0:00:00,20.9258,77.7647
1741,Amreli,NULL,76,TRUE,2024-06-25 0:00:00,2024-06-25 0:00:00,21.6006,71.2164
1744,Amritsar,NULL,76,TRUE,2024-06-25 0:00:00,2024-06-25 0:00:00,31.64,74.86
1745,Amroha,NULL,76,TRUE,2024-06-25 0:00:00,2024-06-25 0:00:00,28.9044,78.4675
1746,Amsin,NULL,76,TRUE,2024-06-25 0:00:00,2024-06-25 0:00:00,26.5733,82.4357
1751,Amta,NULL,76,TRUE,2024-06-25 0:00:00,2024-06-25 0:00:00,22.5834,88.0104
1752,Amtala,NULL,76,TRUE,2024-06-25 0:00:00,2024-06-25 0:00:00,26.1,91.39
1753,Amtala,NULL,76,TRUE,2024-06-25 0:00:00,2024-06-25 0:00:00,22.3669,88.2777
1757,Amudalapalle,NULL,76,TRUE,2024-06-25 0:00:00,2024-06-25 0:00:00,15.9301,80.6899
1758,Amudalavalasa,NULL,76,TRUE,2024-06-25 0:00:00,2024-06-25 0:00:00,18.4167,83.9
1767,Amwa Majhar,NULL,76,TRUE,2024-06-25 0:00:00,2024-06-25 0:00:00,26.7362,84.5818
1794,Anaikal,NULL,76,TRUE,2024-06-25 0:00:00,2024-06-25 0:00:00,9.6003,76.6846
1795,Anaiyur,NULL,76,TRUE,2024-06-25 0:00:00,2024-06-25 0:00:00,9.9615,78.1118
1798,Anakapalle,NULL,76,TRUE,2024-06-25 0:00:00,2024-06-25 0:00:00,17.6913,83.0039
1799,Anakaputtur,NULL,76,TRUE,2024-06-25 0:00:00,2024-06-25 0:00:00,12.9823,80.1282
1811,Anamalais,NULL,76,TRUE,2024-06-25 0:00:00,2024-06-25 0:00:00,10.583,76.9344
1816,Anand,NULL,76,TRUE,2024-06-25 0:00:00,2024-06-25 0:00:00,22.556,72.951
1817,Anandapuram,NULL,76,TRUE,2024-06-25 0:00:00,2024-06-25 0:00:00,11.09,76.9422
1818,Anandnagar,NULL,76,TRUE,2024-06-25 0:00:00,2024-06-25 0:00:00,27.1,83.2833
1819,Anandpur,NULL,76,TRUE,2024-06-25 0:00:00,2024-06-25 0:00:00,21.2141,86.1249
1820,Anandpur,NULL,76,TRUE,2024-06-25 0:00:00,2024-06-25 0:00:00,31.2393,76.5025
1821,Anandpur,NULL,76,TRUE,2024-06-25 0:00:00,2024-06-25 0:00:00,25.6192,84.8673
1824,Ananipalle,NULL,76,TRUE,2024-06-25 0:00:00,2024-06-25 0:00:00,13.4902,79.2895
1825,Anantapalle,NULL,76,TRUE,2024-06-25 0:00:00,2024-06-25 0:00:00,16.9767,81.4442
1826,Anantapur,NULL,76,TRUE,2024-06-25 0:00:00,2024-06-25 0:00:00,14.68,77.599
1827,Anantarazupeta,NULL,76,TRUE,2024-06-25 0:00:00,2024-06-25 0:00:00,14.0014,79.3319
1828,Anantasagaram,NULL,76,TRUE,2024-06-25 0:00:00,2024-06-25 0:00:00,14.5833,79.4167
1829,Anantavur,NULL,76,TRUE,2024-06-25 0:00:00,2024-06-25 0:00:00,10.8925,75.9983
1830,Anantpur,NULL,76,TRUE,2024-06-25 0:00:00,2024-06-25 0:00:00,16.889,75.0146
1841,Anavatti,NULL,76,TRUE,2024-06-25 0:00:00,2024-06-25 0:00:00,14.5645,75.1523
1855,Andal,NULL,76,TRUE,2024-06-25 0:00:00,2024-06-25 0:00:00,23.6,87.2
1861,Andanappettai,NULL,76,TRUE,2024-06-25 0:00:00,2024-06-25 0:00:00,10.7498,79.8226
1880,Andhana,NULL,76,TRUE,2024-06-25 0:00:00,2024-06-25 0:00:00,25.2574,85.4548
1881,Andhra Tharhi,NULL,76,TRUE,2024-06-25 0:00:00,2024-06-25 0:00:00,26.3771,86.3341
1890,Andipalaiyam,NULL,76,TRUE,2024-06-25 0:00:00,2024-06-25 0:00:00,11.092,77.315
1891,Andippatti,NULL,76,TRUE,2024-06-25 0:00:00,2024-06-25 0:00:00,9.998,77.621
1894,Andiyappanur,NULL,76,TRUE,2024-06-25 0:00:00,2024-06-25 0:00:00,12.5342,78.7024
1951,Andurkonam,NULL,76,TRUE,2024-06-25 0:00:00,2024-06-25 0:00:00,8.5969,76.8664
1953,Anekal,NULL,76,TRUE,2024-06-25 0:00:00,2024-06-25 0:00:00,12.7105,77.6967
1959,Angadikkal Tekkekara,NULL,76,TRUE,2024-06-25 0:00:00,2024-06-25 0:00:00,9.2063,76.7835
1960,Angalakuduru Malepalle,NULL,76,TRUE,2024-06-25 0:00:00,2024-06-25 0:00:00,16.2392,80.6117
1961,Angalakurichchi,NULL,76,TRUE,2024-06-25 0:00:00,2024-06-25 0:00:00,10.5282,76.9962
1962,Angallu,NULL,76,TRUE,2024-06-25 0:00:00,2024-06-25 0:00:00,13.6287,78.4857
1963,Angamali,NULL,76,TRUE,2024-06-25 0:00:00,2024-06-25 0:00:00,10.196,76.386
1976,Anghad,NULL,76,TRUE,2024-06-25 0:00:00,2024-06-25 0:00:00,22.3913,72.9946
1978,Angichettippalaiyam,NULL,76,TRUE,2024-06-25 0:00:00,2024-06-25 0:00:00,11.7742,79.5255
1994,Angul,NULL,76,TRUE,2024-06-25 0:00:00,2024-06-25 0:00:00,20.8381,85.0956
1997,Angwali,NULL,76,TRUE,2024-06-25 0:00:00,2024-06-25 0:00:00,23.7317,85.9858
2007,Anjad,NULL,76,TRUE,2024-06-25 0:00:00,2024-06-25 0:00:00,22.0417,75.0552
2013,Anjangaon,NULL,76,TRUE,2024-06-25 0:00:00,2024-06-25 0:00:00,21.15,77.28
2015,Anjarkandi,NULL,76,TRUE,2024-06-25 0:00:00,2024-06-25 0:00:00,11.8822,75.5097
2016,Anjehalli,NULL,76,TRUE,2024-06-25 0:00:00,2024-06-25 0:00:00,12.1395,77.9808
2024,Anjukulippatti,NULL,76,TRUE,2024-06-25 0:00:00,2024-06-25 0:00:00,10.2444,78.0794
2025,Anjuna,NULL,76,TRUE,2024-06-25 0:00:00,2024-06-25 0:00:00,15.5833,73.7333
2026,Anjur,NULL,76,TRUE,2024-06-25 0:00:00,2024-06-25 0:00:00,10.5992,76.1553
2032,Ankalgi,NULL,76,TRUE,2024-06-25 0:00:00,2024-06-25 0:00:00,16.0333,74.7
2061,Ankireddikuntapalem,NULL,76,TRUE,2024-06-25 0:00:00,2024-06-25 0:00:00,15.9154,80.2108
2066,Ankli,NULL,76,TRUE,2024-06-25 0:00:00,2024-06-25 0:00:00,16.42,74.58
2068,Ankola,NULL,76,TRUE,2024-06-25 0:00:00,2024-06-25 0:00:00,14.6605,74.3047
2077,Annakattumula,NULL,76,TRUE,2024-06-25 0:00:00,2024-06-25 0:00:00,9.8575,76.4009
2078,Annakunnu,NULL,76,TRUE,2024-06-25 0:00:00,2024-06-25 0:00:00,11.7463,76.0415
2079,Annamalainagar,NULL,76,TRUE,2024-06-25 0:00:00,2024-06-25 0:00:00,11.4,79.7333
2085,Annaram,NULL,76,TRUE,2024-06-25 0:00:00,2024-06-25 0:00:00,16.784,79.302
2086,Anndevarapeta,NULL,76,TRUE,2024-06-25 0:00:00,2024-06-25 0:00:00,17.0937,81.5799
2090,Annigeri,NULL,76,TRUE,2024-06-25 0:00:00,2024-06-25 0:00:00,15.4251,75.4335
2094,Annur,NULL,76,TRUE,2024-06-25 0:00:00,2024-06-25 0:00:00,11.2325,77.1069
2163,Antardipa,NULL,76,TRUE,2024-06-25 0:00:00,2024-06-25 0:00:00,24.6442,87.9213
2165,Antargangi,NULL,76,TRUE,2024-06-25 0:00:00,2024-06-25 0:00:00,17.17,75.96
2167,Antarvedi,NULL,76,TRUE,2024-06-25 0:00:00,2024-06-25 0:00:00,16.3333,81.7333
2168,Antarvedipalem,NULL,76,TRUE,2024-06-25 0:00:00,2024-06-25 0:00:00,16.3319,81.732
2204,Antri,NULL,76,TRUE,2024-06-25 0:00:00,2024-06-25 0:00:00,26.0581,78.21
2237,Antur,NULL,76,TRUE,2024-06-25 0:00:00,2024-06-25 0:00:00,11.987,75.376
2239,Anuppampattu,NULL,76,TRUE,2024-06-25 0:00:00,2024-06-25 0:00:00,13.3018,80.2258
2240,Anuppur,NULL,76,TRUE,2024-06-25 0:00:00,2024-06-25 0:00:00,23.1034,81.6908
2241,Anupshahr,NULL,76,TRUE,2024-06-25 0:00:00,2024-06-25 0:00:00,28.37,78.27
2288,Aphaur,NULL,76,TRUE,2024-06-25 0:00:00,2024-06-25 0:00:00,25.8828,84.7595
2305,Apparaopeta,NULL,76,TRUE,2024-06-25 0:00:00,2024-06-25 0:00:00,16.8987,81.5684
2314,Appukkudal,NULL,76,TRUE,2024-06-25 0:00:00,2024-06-25 0:00:00,11.4684,77.5766
2361,Arachchalur,NULL,76,TRUE,2024-06-25 0:00:00,2024-06-25 0:00:00,11.1627,77.7007
2384,Arajpur,NULL,76,TRUE,2024-06-25 0:00:00,2024-06-25 0:00:00,25.5197,87.0808
2388,Arakere,NULL,76,TRUE,2024-06-25 0:00:00,2024-06-25 0:00:00,12.4133,76.8168
2389,Arakkal,NULL,76,TRUE,2024-06-25 0:00:00,2024-06-25 0:00:00,8.948,76.8631
2390,Arakkapadi,NULL,76,TRUE,2024-06-25 0:00:00,2024-06-25 0:00:00,10.0599,76.4592
2395,Aralam,NULL,76,TRUE,2024-06-25 0:00:00,2024-06-25 0:00:00,11.9992,75.764
2397,Aramangalam,NULL,76,TRUE,2024-06-25 0:00:00,2024-06-25 0:00:00,11.5843,76.0001
2399,Arambagh,NULL,76,TRUE,2024-06-25 0:00:00,2024-06-25 0:00:00,22.88,87.78
2400,Arambakkam,NULL,76,TRUE,2024-06-25 0:00:00,2024-06-25 0:00:00,13.5258,80.071
2403,Aranda,NULL,76,TRUE,2024-06-25 0:00:00,2024-06-25 0:00:00,26.085,84.3601
2408,Arani,NULL,76,TRUE,2024-06-25 0:00:00,2024-06-25 0:00:00,13.3346,80.0848
2412,Arantangi,NULL,76,TRUE,2024-06-25 0:00:00,2024-06-25 0:00:00,10.1686,78.992
2413,Aranya Kalan,NULL,76,TRUE,2024-06-25 0:00:00,2024-06-25 0:00:00,23.2448,76.7435
2433,Araria,NULL,76,TRUE,2024-06-25 0:00:00,2024-06-25 0:00:00,26.15,87.52
2440,Arasur,NULL,76,TRUE,2024-06-25 0:00:00,2024-06-25 0:00:00,11.0866,77.1146
2451,Aravakkurichchi,NULL,76,TRUE,2024-06-25 0:00:00,2024-06-25 0:00:00,10.776,77.9076
2453,Aravankara,NULL,76,TRUE,2024-06-25 0:00:00,2024-06-25 0:00:00,11.0745,75.9369
2454,Aravelli,NULL,76,TRUE,2024-06-25 0:00:00,2024-06-25 0:00:00,18.719,79.0262
2486,Arcot,NULL,76,TRUE,2024-06-25 0:00:00,2024-06-25 0:00:00,12.9047,79.3238
2490,Arda,NULL,76,TRUE,2024-06-25 0:00:00,2024-06-25 0:00:00,32.3087,76.5772
2524,Areraj,NULL,76,TRUE,2024-06-25 0:00:00,2024-06-25 0:00:00,26.5527,84.6726
2561,Arimalam,NULL,76,TRUE,2024-06-25 0:00:00,2024-06-25 0:00:00,10.255,78.884
2570,Ariyalur,NULL,76,TRUE,2024-06-25 0:00:00,2024-06-25 0:00:00,11.1372,79.0778
2580,Arkonam,NULL,76,TRUE,2024-06-25 0:00:00,2024-06-25 0:00:00,13.0778,79.6667
2593,Arma,NULL,76,TRUE,2024-06-25 0:00:00,2024-06-25 0:00:00,25.1966,86.2468
2610,Armur,NULL,76,TRUE,2024-06-25 0:00:00,2024-06-25 0:00:00,18.79,78.29
2616,Arni,NULL,76,TRUE,2024-06-25 0:00:00,2024-06-25 0:00:00,12.6677,79.2853
2617,Arni ka Khera,NULL,76,TRUE,2024-06-25 0:00:00,2024-06-25 0:00:00,24.9,74.33
2619,Arniya,NULL,76,TRUE,2024-06-25 0:00:00,2024-06-25 0:00:00,25.715,85.5448
2627,Aroali,NULL,76,TRUE,2024-06-25 0:00:00,2024-06-25 0:00:00,24.043,87.9443
2629,Arohi,NULL,76,TRUE,2024-06-25 0:00:00,2024-06-25 0:00:00,31.8419,76.8645
2630,Aron,NULL,76,TRUE,2024-06-25 0:00:00,2024-06-25 0:00:00,24.3811,77.4174
2640,Arrah,NULL,76,TRUE,2024-06-25 0:00:00,2024-06-25 0:00:00,25.5514,84.6603
2644,Arrapalli,NULL,76,TRUE,2024-06-25 0:00:00,2024-06-25 0:00:00,18.0718,79.7386
2665,Arsali,NULL,76,TRUE,2024-06-25 0:00:00,2024-06-25 0:00:00,24.3754,83.5903
2668,Arsikere,NULL,76,TRUE,2024-06-25 0:00:00,2024-06-25 0:00:00,13.3139,76.2369
2693,Arttuvattala,NULL,76,TRUE,2024-06-25 0:00:00,2024-06-25 0:00:00,9.5167,76.3167
2699,Arugollu,NULL,76,TRUE,2024-06-25 0:00:00,2024-06-25 0:00:00,16.8253,81.5775
2701,Arukutti,NULL,76,TRUE,2024-06-25 0:00:00,2024-06-25 0:00:00,9.8309,76.427
2702,Arumbakkam,NULL,76,TRUE,2024-06-25 0:00:00,2024-06-25 0:00:00,13.5427,80.069
2703,Arumbavur,NULL,76,TRUE,2024-06-25 0:00:00,2024-06-25 0:00:00,11.381,78.7296
2704,Arumuganeri,NULL,76,TRUE,2024-06-25 0:00:00,2024-06-25 0:00:00,8.5717,78.0922
2705,Aruppukkottai,NULL,76,TRUE,2024-06-25 0:00:00,2024-06-25 0:00:00,9.5139,78.1002
2707,Arutla,NULL,76,TRUE,2024-06-25 0:00:00,2024-06-25 0:00:00,17.1346,78.7574
2708,Aruvapalam,NULL,76,TRUE,2024-06-25 0:00:00,2024-06-25 0:00:00,9.1833,76.85
2709,Aruvikkara,NULL,76,TRUE,2024-06-25 0:00:00,2024-06-25 0:00:00,8.3331,77.2788
2717,Arwal,NULL,76,TRUE,2024-06-25 0:00:00,2024-06-25 0:00:00,25.2442,84.6631
2752,Asafabad,NULL,76,TRUE,2024-06-25 0:00:00,2024-06-25 0:00:00,19.365,79.274
2762,Asahni,NULL,76,TRUE,2024-06-25 0:00:00,2024-06-25 0:00:00,26.0079,84.4799
2766,Asakapalle,NULL,76,TRUE,2024-06-25 0:00:00,2024-06-25 0:00:00,17.7364,83.3
2773,Asan,NULL,76,TRUE,2024-06-25 0:00:00,2024-06-25 0:00:00,25.73,74.33
2775,Asansol,NULL,76,TRUE,2024-06-25 0:00:00,2024-06-25 0:00:00,23.68,86.99
2776,Asara,NULL,76,TRUE,2024-06-25 0:00:00,2024-06-25 0:00:00,29.2494,77.2915
2778,Asarganj,NULL,76,TRUE,2024-06-25 0:00:00,2024-06-25 0:00:00,25.15,86.68
2779,Asarhi,NULL,76,TRUE,2024-06-25 0:00:00,2024-06-25 0:00:00,25.2892,85.2189
2838,Ashoknagar,NULL,76,TRUE,2024-06-25 0:00:00,2024-06-25 0:00:00,24.58,77.73
2840,Ashta,NULL,76,TRUE,2024-06-25 0:00:00,2024-06-25 0:00:00,23.0175,76.7221
2851,Ashwaraopeta,NULL,76,TRUE,2024-06-25 0:00:00,2024-06-25 0:00:00,17.25,81.1333
2876,Assamannur,NULL,76,TRUE,2024-06-25 0:00:00,2024-06-25 0:00:00,10.1129,76.5517
2893,Asthal Bohar,NULL,76,TRUE,2024-06-25 0:00:00,2024-06-25 0:00:00,28.873,76.642
2894,Asthanwan,NULL,76,TRUE,2024-06-25 0:00:00,2024-06-25 0:00:00,25.2215,85.6262
2907,Asudapuram,NULL,76,TRUE,2024-06-25 0:00:00,2024-06-25 0:00:00,15.878,78.132
2913,Aswapuram,NULL,76,TRUE,2024-06-25 0:00:00,2024-06-25 0:00:00,17.8348,80.8236
2934,Atari,NULL,76,TRUE,2024-06-25 0:00:00,2024-06-25 0:00:00,31.6008,74.6056
2935,Atarra,NULL,76,TRUE,2024-06-25 0:00:00,2024-06-25 0:00:00,25.28,80.57
2942,Atchampeta,NULL,76,TRUE,2024-06-25 0:00:00,2024-06-25 0:00:00,15.5412,78.9503
2951,Athar,NULL,76,TRUE,2024-06-25 0:00:00,2024-06-25 0:00:00,26.0392,86.059
2953,Atharga,NULL,76,TRUE,2024-06-25 0:00:00,2024-06-25 0:00:00,16.9875,75.8863
2965,Athiringal,NULL,76,TRUE,2024-06-25 0:00:00,2024-06-25 0:00:00,9.0667,76.5
2967,Athni,NULL,76,TRUE,2024-06-25 0:00:00,2024-06-25 0:00:00,16.73,75.07
2980,Atlapadu,NULL,76,TRUE,2024-06-25 0:00:00,2024-06-25 0:00:00,16.8877,81.6772
2985,Atmakur,NULL,76,TRUE,2024-06-25 0:00:00,2024-06-25 0:00:00,15.8779,78.5884
2986,Atmakur,NULL,76,TRUE,2024-06-25 0:00:00,2024-06-25 0:00:00,14.6167,79.6167
2987,Atmakur,NULL,76,TRUE,2024-06-25 0:00:00,2024-06-25 0:00:00,16.3364,77.8056
2988,Atmakur,NULL,76,TRUE,2024-06-25 0:00:00,2024-06-25 0:00:00,18.0712,79.736
2989,Atmakuru,NULL,76,TRUE,2024-06-25 0:00:00,2024-06-25 0:00:00,14.6452,77.3554
2990,Atner,NULL,76,TRUE,2024-06-25 0:00:00,2024-06-25 0:00:00,21.6238,77.9152
2999,Atru,NULL,76,TRUE,2024-06-25 0:00:00,2024-06-25 0:00:00,24.81,76.63
3001,Attanur,NULL,76,TRUE,2024-06-25 0:00:00,2024-06-25 0:00:00,11.5006,78.1356
3002,Attappampatti,NULL,76,TRUE,2024-06-25 0:00:00,2024-06-25 0:00:00,11.482,78.0248
3006,Attibele,NULL,76,TRUE,2024-06-25 0:00:00,2024-06-25 0:00:00,12.7781,77.7726
3008,Attili,NULL,76,TRUE,2024-06-25 0:00:00,2024-06-25 0:00:00,16.7,81.6
3009,Attimarappatti,NULL,76,TRUE,2024-06-25 0:00:00,2024-06-25 0:00:00,8.7297,78.1169
3010,Attingal,NULL,76,TRUE,2024-06-25 0:00:00,2024-06-25 0:00:00,8.68,76.83
3011,Attippattu,NULL,76,TRUE,2024-06-25 0:00:00,2024-06-25 0:00:00,13.2633,80.2911
3016,Attur,NULL,76,TRUE,2024-06-25 0:00:00,2024-06-25 0:00:00,8.3224,77.2558
3017,Atturkuppam,NULL,76,TRUE,2024-06-25 0:00:00,2024-06-25 0:00:00,12.6,78.5423
3060,Auhar Sheikh,NULL,76,TRUE,2024-06-25 0:00:00,2024-06-25 0:00:00,26.7216,84.5993
3063,Aul,NULL,76,TRUE,2024-06-25 0:00:00,2024-06-25 0:00:00,20.67,86.64
3069,Aurad,NULL,76,TRUE,2024-06-25 0:00:00,2024-06-25 0:00:00,18.254,77.4176
3070,Aurad Shahjahani,NULL,76,TRUE,2024-06-25 0:00:00,2024-06-25 0:00:00,18.0958,76.8881
3071,Aurahi,NULL,76,TRUE,2024-06-25 0:00:00,2024-06-25 0:00:00,26.1895,87.3372
3072,Aurahi,NULL,76,TRUE,2024-06-25 0:00:00,2024-06-25 0:00:00,25.5709,86.9668
3073,Aurahi,NULL,76,TRUE,2024-06-25 0:00:00,2024-06-25 0:00:00,26.0355,86.7467
3074,Aurahi,NULL,76,TRUE,2024-06-25 0:00:00,2024-06-25 0:00:00,25.8263,87.1365
3075,Aurangabad,NULL,76,TRUE,2024-06-25 0:00:00,2024-06-25 0:00:00,19.88,75.32
3076,Aurangabad,NULL,76,TRUE,2024-06-25 0:00:00,2024-06-25 0:00:00,24.7,84.35
3077,Aurangabad,NULL,76,TRUE,2024-06-25 0:00:00,2024-06-25 0:00:00,27.894,77.369
3080,Auria,NULL,76,TRUE,2024-06-25 0:00:00,2024-06-25 0:00:00,24.8563,87.0112
3100,Auta,NULL,76,TRUE,2024-06-25 0:00:00,2024-06-25 0:00:00,25.3882,85.9558
3107,Avadattur,NULL,76,TRUE,2024-06-25 0:00:00,2024-06-25 0:00:00,11.7014,77.8638
3108,Avadi,NULL,76,TRUE,2024-06-25 0:00:00,2024-06-25 0:00:00,13.1147,80.1098
3109,Avalepalli,NULL,76,TRUE,2024-06-25 0:00:00,2024-06-25 0:00:00,12.7714,77.8594
3110,Avalpundurai,NULL,76,TRUE,2024-06-25 0:00:00,2024-06-25 0:00:00,11.231,77.7182
3111,Avalurpet,NULL,76,TRUE,2024-06-25 0:00:00,2024-06-25 0:00:00,12.38,79.3465
3112,Avanashipalaiyam,NULL,76,TRUE,2024-06-25 0:00:00,2024-06-25 0:00:00,10.9696,77.4352
3114,Avanigadda,NULL,76,TRUE,2024-06-25 0:00:00,2024-06-25 0:00:00,16.0197,80.92
3115,Avaniyapuram,NULL,76,TRUE,2024-06-25 0:00:00,2024-06-25 0:00:00,9.8818,78.1125
3136,Avidha,NULL,76,TRUE,2024-06-25 0:00:00,2024-06-25 0:00:00,21.6651,73.0366
3144,Avitanallur,NULL,76,TRUE,2024-06-25 0:00:00,2024-06-25 0:00:00,11.5002,75.8059
3163,Awankh,NULL,76,TRUE,2024-06-25 0:00:00,2024-06-25 0:00:00,32.1392,75.4611
3165,Awantipur,NULL,76,TRUE,2024-06-25 0:00:00,2024-06-25 0:00:00,33.9233,75.0128
3190,Ayanavelikulangara Tekku,NULL,76,TRUE,2024-06-25 0:00:00,2024-06-25 0:00:00,9.0436,76.5199
3192,Ayanikkad,NULL,76,TRUE,2024-06-25 0:00:00,2024-06-25 0:00:00,10.458,76.126
3196,Ayas,NULL,76,TRUE,2024-06-25 0:00:00,2024-06-25 0:00:00,24.2508,87.7784
3204,Ayikudi,NULL,76,TRUE,2024-06-25 0:00:00,2024-06-25 0:00:00,9.0032,77.3449
3205,Ayinikkad,NULL,76,TRUE,2024-06-25 0:00:00,2024-06-25 0:00:00,11.4974,75.72
3206,Ayirapuram,NULL,76,TRUE,2024-06-25 0:00:00,2024-06-25 0:00:00,9.88,76.3
3207,Ayirurpara,NULL,76,TRUE,2024-06-25 0:00:00,2024-06-25 0:00:00,8.503,76.9522
3211,Aymangala,NULL,76,TRUE,2024-06-25 0:00:00,2024-06-25 0:00:00,12.0333,75.7333
3215,Ayodhyapattanam,NULL,76,TRUE,2024-06-25 0:00:00,2024-06-25 0:00:00,11.6755,78.2409
3238,Ayyagarpet,NULL,76,TRUE,2024-06-25 0:00:00,2024-06-25 0:00:00,17.2197,80.8339
3239,Ayyampalaiyam,NULL,76,TRUE,2024-06-25 0:00:00,2024-06-25 0:00:00,10.2253,77.7485
3240,Ayyampettai,NULL,76,TRUE,2024-06-25 0:00:00,2024-06-25 0:00:00,10.8971,79.1915
3259,Azamnagar,NULL,76,TRUE,2024-06-25 0:00:00,2024-06-25 0:00:00,25.5456,87.8294
3270,Azhikkal,NULL,76,TRUE,2024-06-25 0:00:00,2024-06-25 0:00:00,11.9076,75.3446
3271,Azhikkod,NULL,76,TRUE,2024-06-25 0:00:00,2024-06-25 0:00:00,11.9076,75.3446
3273,Azizpur Chande,NULL,76,TRUE,2024-06-25 0:00:00,2024-06-25 0:00:00,25.7932,85.5945
3303,Baba Bakala,NULL,76,TRUE,2024-06-25 0:00:00,2024-06-25 0:00:00,31.555,75.2656
3309,Babai,NULL,76,TRUE,2024-06-25 0:00:00,2024-06-25 0:00:00,22.7026,77.9349
3310,Babai Kalan,NULL,76,TRUE,2024-06-25 0:00:00,2024-06-25 0:00:00,22.8313,78.6774
3319,Babhanganwa,NULL,76,TRUE,2024-06-25 0:00:00,2024-06-25 0:00:00,26.1398,86.8464
3320,Babhangaon,NULL,76,TRUE,2024-06-25 0:00:00,2024-06-25 0:00:00,25.7897,86.9767
3321,Babhangawan,NULL,76,TRUE,2024-06-25 0:00:00,2024-06-25 0:00:00,25.3674,86.9501
3322,Babhani Bholwa,NULL,76,TRUE,2024-06-25 0:00:00,2024-06-25 0:00:00,26.0876,86.7456
3323,Babhantoli,NULL,76,TRUE,2024-06-25 0:00:00,2024-06-25 0:00:00,26.252,87.926
3324,Babhniyawan,NULL,76,TRUE,2024-06-25 0:00:00,2024-06-25 0:00:00,25.4943,84.4815
3325,Babhnoul,NULL,76,TRUE,2024-06-25 0:00:00,2024-06-25 0:00:00,25.3202,84.2128
3330,Babra,NULL,76,TRUE,2024-06-25 0:00:00,2024-06-25 0:00:00,21.8442,71.3042
3332,Babura,NULL,76,TRUE,2024-06-25 0:00:00,2024-06-25 0:00:00,25.6838,84.7825
3346,Bachchannapet,NULL,76,TRUE,2024-06-25 0:00:00,2024-06-25 0:00:00,17.7883,79.0349
3347,Bachhauta,NULL,76,TRUE,2024-06-25 0:00:00,2024-06-25 0:00:00,25.5242,86.4606
3348,Bachhraon,NULL,76,TRUE,2024-06-25 0:00:00,2024-06-25 0:00:00,28.93,78.22
3350,Bachra,NULL,76,TRUE,2024-06-25 0:00:00,2024-06-25 0:00:00,23.6886,85.0703
3446,Bada Barabil,NULL,76,TRUE,2024-06-25 0:00:00,2024-06-25 0:00:00,22.12,85.4
3447,Badagabettu,NULL,76,TRUE,2024-06-25 0:00:00,2024-06-25 0:00:00,13.3335,74.7999
3451,Badami,NULL,76,TRUE,2024-06-25 0:00:00,2024-06-25 0:00:00,15.92,75.6803
3452,Badanahatti,NULL,76,TRUE,2024-06-25 0:00:00,2024-06-25 0:00:00,15.3176,76.8258
3453,Badantola,NULL,76,TRUE,2024-06-25 0:00:00,2024-06-25 0:00:00,25.2517,87.842
3454,Badarpur,NULL,76,TRUE,2024-06-25 0:00:00,2024-06-25 0:00:00,24.8685,92.5961
3455,Badarwas,NULL,76,TRUE,2024-06-25 0:00:00,2024-06-25 0:00:00,24.9752,77.5649
3460,Badepalli,NULL,76,TRUE,2024-06-25 0:00:00,2024-06-25 0:00:00,16.7549,78.1443
3465,Badiadka,NULL,76,TRUE,2024-06-25 0:00:00,2024-06-25 0:00:00,12.5833,75.0667
3469,Badkulla,NULL,76,TRUE,2024-06-25 0:00:00,2024-06-25 0:00:00,23.3036,88.5302
3470,Badnawar,NULL,76,TRUE,2024-06-25 0:00:00,2024-06-25 0:00:00,23.0218,75.2327
3471,Badnor,NULL,76,TRUE,2024-06-25 0:00:00,2024-06-25 0:00:00,25.8355,74.2775
3477,Badru Khan,NULL,76,TRUE,2024-06-25 0:00:00,2024-06-25 0:00:00,30.2523,75.7917
3478,Badshahpur,NULL,76,TRUE,2024-06-25 0:00:00,2024-06-25 0:00:00,28.393,77.048
3480,Baduria,NULL,76,TRUE,2024-06-25 0:00:00,2024-06-25 0:00:00,22.74,88.79
3481,Baduriatola,NULL,76,TRUE,2024-06-25 0:00:00,2024-06-25 0:00:00,24.0928,84.0895
3482,Badurpalle,NULL,76,TRUE,2024-06-25 0:00:00,2024-06-25 0:00:00,17.5468,78.365
3483,Badvel,NULL,76,TRUE,2024-06-25 0:00:00,2024-06-25 0:00:00,14.75,79.05
3502,Bag,NULL,76,TRUE,2024-06-25 0:00:00,2024-06-25 0:00:00,22.359,74.7905
3508,Bagaha,NULL,76,TRUE,2024-06-25 0:00:00,2024-06-25 0:00:00,27.0992,84.09
3509,Bagahi,NULL,76,TRUE,2024-06-25 0:00:00,2024-06-25 0:00:00,26.7632,84.467
3510,Bagalkot,NULL,76,TRUE,2024-06-25 0:00:00,2024-06-25 0:00:00,16.1817,75.6958
3511,Bagalur,NULL,76,TRUE,2024-06-25 0:00:00,2024-06-25 0:00:00,12.8333,77.8667
3512,Bagalvad,NULL,76,TRUE,2024-06-25 0:00:00,2024-06-25 0:00:00,16.0528,76.8877
3518,Bagasra,NULL,76,TRUE,2024-06-25 0:00:00,2024-06-25 0:00:00,21.4833,70.95
3519,Bagaura,NULL,76,TRUE,2024-06-25 0:00:00,2024-06-25 0:00:00,26.0388,84.4624
3520,Bagchini,NULL,76,TRUE,2024-06-25 0:00:00,2024-06-25 0:00:00,26.4817,77.8185
3524,Bagepalli,NULL,76,TRUE,2024-06-25 0:00:00,2024-06-25 0:00:00,13.78,77.79
3525,Bageshwar,NULL,76,TRUE,2024-06-25 0:00:00,2024-06-25 0:00:00,29.838,79.771
3526,Bagewadi,NULL,76,TRUE,2024-06-25 0:00:00,2024-06-25 0:00:00,16.29,74.6
3529,Bagha Purana,NULL,76,TRUE,2024-06-25 0:00:00,2024-06-25 0:00:00,30.6881,75.0984
3530,Baghambarpur,NULL,76,TRUE,2024-06-25 0:00:00,2024-06-25 0:00:00,26.8075,84.4059
3531,Baghant,NULL,76,TRUE,2024-06-25 0:00:00,2024-06-25 0:00:00,26.1748,86.1705
3532,Baghauni,NULL,76,TRUE,2024-06-25 0:00:00,2024-06-25 0:00:00,25.9338,86.0594
3534,Baghduma,NULL,76,TRUE,2024-06-25 0:00:00,2024-06-25 0:00:00,24.8223,87.0116
3541,Baghmari,NULL,76,TRUE,2024-06-25 0:00:00,2024-06-25 0:00:00,20.2206,85.5014
3542,Baghmaria,NULL,76,TRUE,2024-06-25 0:00:00,2024-06-25 0:00:00,26.44,86.43
3543,Baghpat,NULL,76,TRUE,2024-06-25 0:00:00,2024-06-25 0:00:00,28.95,77.22
3544,Baghra,NULL,76,TRUE,2024-06-25 0:00:00,2024-06-25 0:00:00,25.5597,85.5841
3547,Bagli,NULL,76,TRUE,2024-06-25 0:00:00,2024-06-25 0:00:00,22.6412,76.3488
3550,Bagnan,NULL,76,TRUE,2024-06-25 0:00:00,2024-06-25 0:00:00,22.47,87.97
3562,Bagor,NULL,76,TRUE,2024-06-25 0:00:00,2024-06-25 0:00:00,25.3575,74.3731
3564,Bagra,NULL,76,TRUE,2024-06-25 0:00:00,2024-06-25 0:00:00,25.2,72.5833
3567,Bagrinagar,NULL,76,TRUE,2024-06-25 0:00:00,2024-06-25 0:00:00,25.9,73.8
3573,Bagula,NULL,76,TRUE,2024-06-25 0:00:00,2024-06-25 0:00:00,23.335,88.644
3579,Bahadarpur,NULL,76,TRUE,2024-06-25 0:00:00,2024-06-25 0:00:00,21.2922,76.1806
3580,Bahadurganj,NULL,76,TRUE,2024-06-25 0:00:00,2024-06-25 0:00:00,26.2617,87.8244
3581,Bahadurpur,NULL,76,TRUE,2024-06-25 0:00:00,2024-06-25 0:00:00,25.4522,85.6303
3582,Bahagalpur,NULL,76,TRUE,2024-06-25 0:00:00,2024-06-25 0:00:00,24.5934,87.9536
3585,Baharampur,NULL,76,TRUE,2024-06-25 0:00:00,2024-06-25 0:00:00,24.1,88.25
3588,Baharu,NULL,76,TRUE,2024-06-25 0:00:00,2024-06-25 0:00:00,22.204,88.4283
3593,Baheri,NULL,76,TRUE,2024-06-25 0:00:00,2024-06-25 0:00:00,25.9426,86.0471
3601,Bahraigh,NULL,76,TRUE,2024-06-25 0:00:00,2024-06-25 0:00:00,27.575,81.594
3603,Bahutal,NULL,76,TRUE,2024-06-25 0:00:00,2024-06-25 0:00:00,24.5714,87.8971
3624,Baihar,NULL,76,TRUE,2024-06-25 0:00:00,2024-06-25 0:00:00,22.1013,80.5497
3627,Baikatpur,NULL,76,TRUE,2024-06-25 0:00:00,2024-06-25 0:00:00,25.4939,85.3792
3629,Baikunthapur,NULL,76,TRUE,2024-06-25 0:00:00,2024-06-25 0:00:00,22.9808,88.2058
3630,Baikunthpur,NULL,76,TRUE,2024-06-25 0:00:00,2024-06-25 0:00:00,24.7277,81.4098
3637,Bail-Hongal,NULL,76,TRUE,2024-06-25 0:00:00,2024-06-25 0:00:00,15.8137,74.8589
3645,Baindur,NULL,76,TRUE,2024-06-25 0:00:00,2024-06-25 0:00:00,13.866,74.6333
3649,Bairagnia,NULL,76,TRUE,2024-06-25 0:00:00,2024-06-25 0:00:00,26.7381,85.2736
3650,Bairi Chak,NULL,76,TRUE,2024-06-25 0:00:00,2024-06-25 0:00:00,24.6951,84.9913
3651,Bairia,NULL,76,TRUE,2024-06-25 0:00:00,2024-06-25 0:00:00,25.7583,84.1489
3652,Bairia,NULL,76,TRUE,2024-06-25 0:00:00,2024-06-25 0:00:00,25.5563,85.1835
3653,Bairia,NULL,76,TRUE,2024-06-25 0:00:00,2024-06-25 0:00:00,26.7373,84.4371
3654,Bairiya,NULL,76,TRUE,2024-06-25 0:00:00,2024-06-25 0:00:00,26.3392,84.8236
3656,Bairo,NULL,76,TRUE,2024-06-25 0:00:00,2024-06-25 0:00:00,26.0144,86.51
3659,Baisa,NULL,76,TRUE,2024-06-25 0:00:00,2024-06-25 0:00:00,25.3552,86.7246
3666,Baisuhalli,NULL,76,TRUE,2024-06-25 0:00:00,2024-06-25 0:00:00,12.2064,78.1906
3673,Baj Baj,NULL,76,TRUE,2024-06-25 0:00:00,2024-06-25 0:00:00,22.4828,88.1818
3675,Bajala,NULL,76,TRUE,2024-06-25 0:00:00,2024-06-25 0:00:00,12.8537,74.8853
3682,Bajpe,NULL,76,TRUE,2024-06-25 0:00:00,2024-06-25 0:00:00,12.9803,74.8832
3684,Bajwara,NULL,76,TRUE,2024-06-25 0:00:00,2024-06-25 0:00:00,31.515,75.9494
3688,Bakarpur Ogairah,NULL,76,TRUE,2024-06-25 0:00:00,2024-06-25 0:00:00,25.3294,87.5138
3695,Bakharia,NULL,76,TRUE,2024-06-25 0:00:00,2024-06-25 0:00:00,26.7666,84.6619
3700,Bakhri,NULL,76,TRUE,2024-06-25 0:00:00,2024-06-25 0:00:00,25.5989,86.2607
3701,Bakhtawarpur,NULL,76,TRUE,2024-06-25 0:00:00,2024-06-25 0:00:00,28.821,77.166
3702,Bakhtiyarpur,NULL,76,TRUE,2024-06-25 0:00:00,2024-06-25 0:00:00,25.459,85.539
3708,Bakwa,NULL,76,TRUE,2024-06-25 0:00:00,2024-06-25 0:00:00,26.0601,86.4124
3718,Baladharmaram,NULL,76,TRUE,2024-06-25 0:00:00,2024-06-25 0:00:00,17.4104,79.969
3719,Balagam,NULL,76,TRUE,2024-06-25 0:00:00,2024-06-25 0:00:00,21.3694,70.0981
3726,Balakrishnanpatti,NULL,76,TRUE,2024-06-25 0:00:00,2024-06-25 0:00:00,11.2511,78.4736
3732,Balangir,NULL,76,TRUE,2024-06-25 0:00:00,2024-06-25 0:00:00,20.72,83.48
3737,Balarampur,NULL,76,TRUE,2024-06-25 0:00:00,2024-06-25 0:00:00,26.2432,89.5863
3738,Balarampur,NULL,76,TRUE,2024-06-25 0:00:00,2024-06-25 0:00:00,23.12,86.22
3739,Balarampuram,NULL,76,TRUE,2024-06-25 0:00:00,2024-06-25 0:00:00,8.3833,77.0833
3740,Balasamudram,NULL,76,TRUE,2024-06-25 0:00:00,2024-06-25 0:00:00,10.419,77.4992
3744,Balasore,NULL,76,TRUE,2024-06-25 0:00:00,2024-06-25 0:00:00,21.5033,86.925
3749,Balaungi,NULL,76,TRUE,2024-06-25 0:00:00,2024-06-25 0:00:00,30.7306,76.6937
3759,Baldeogarh,NULL,76,TRUE,2024-06-25 0:00:00,2024-06-25 0:00:00,24.7562,79.0672
3765,Balehonnur,NULL,76,TRUE,2024-06-25 0:00:00,2024-06-25 0:00:00,13.35,75.46
3774,Balha,NULL,76,TRUE,2024-06-25 0:00:00,2024-06-25 0:00:00,25.5468,86.5683
3776,Balhapur,NULL,76,TRUE,2024-06-25 0:00:00,2024-06-25 0:00:00,25.3511,86.2122
3777,Bali,NULL,76,TRUE,2024-06-25 0:00:00,2024-06-25 0:00:00,22.65,88.34
3778,Balia,NULL,76,TRUE,2024-06-25 0:00:00,2024-06-25 0:00:00,24.2433,75.8061
3780,Baligaon,NULL,76,TRUE,2024-06-25 0:00:00,2024-06-25 0:00:00,25.4196,84.4951
3781,Balighattam,NULL,76,TRUE,2024-06-25 0:00:00,2024-06-25 0:00:00,17.651,82.6059
3798,Balkonda,NULL,76,TRUE,2024-06-25 0:00:00,2024-06-25 0:00:00,18.8667,78.35
3803,Ballia,NULL,76,TRUE,2024-06-25 0:00:00,2024-06-25 0:00:00,25.7604,84.1471
3819,Balrampur,NULL,76,TRUE,2024-06-25 0:00:00,2024-06-25 0:00:00,27.43,82.18
3826,Baltara,NULL,76,TRUE,2024-06-25 0:00:00,2024-06-25 0:00:00,25.5116,86.7232
3832,Balua,NULL,76,TRUE,2024-06-25 0:00:00,2024-06-25 0:00:00,26.3272,87.6231
3833,Balua Rampur,NULL,76,TRUE,2024-06-25 0:00:00,2024-06-25 0:00:00,26.7777,84.428
3835,Balugan,NULL,76,TRUE,2024-06-25 0:00:00,2024-06-25 0:00:00,19.7333,85.2167
3836,Balumath,NULL,76,TRUE,2024-06-25 0:00:00,2024-06-25 0:00:00,23.8298,84.7888
3839,Balupur,NULL,76,TRUE,2024-06-25 0:00:00,2024-06-25 0:00:00,25.2611,87.8947
3840,Balurghat,NULL,76,TRUE,2024-06-25 0:00:00,2024-06-25 0:00:00,25.22,88.76
3841,Balussheri,NULL,76,TRUE,2024-06-25 0:00:00,2024-06-25 0:00:00,11.45,75.83
3842,Balvadi,NULL,76,TRUE,2024-06-25 0:00:00,2024-06-25 0:00:00,21.4412,75.223
3845,Balwa,NULL,76,TRUE,2024-06-25 0:00:00,2024-06-25 0:00:00,29.406,77.308
3856,Bamaiya Harlal,NULL,76,TRUE,2024-06-25 0:00:00,2024-06-25 0:00:00,25.6664,85.8802
3858,Bamaur,NULL,76,TRUE,2024-06-25 0:00:00,2024-06-25 0:00:00,26.339,78.101
3878,Bamhni,NULL,76,TRUE,2024-06-25 0:00:00,2024-06-25 0:00:00,22.4822,80.3716
3880,Bamora,NULL,76,TRUE,2024-06-25 0:00:00,2024-06-25 0:00:00,24.0554,78.0893
4057,Banagi,NULL,76,TRUE,2024-06-25 0:00:00,2024-06-25 0:00:00,13.61,75.53
4063,Banapur,NULL,76,TRUE,2024-06-25 0:00:00,2024-06-25 0:00:00,19.7789,85.1703
4065,Banaso,NULL,76,TRUE,2024-06-25 0:00:00,2024-06-25 0:00:00,23.9884,85.7866
4068,Banavar,NULL,76,TRUE,2024-06-25 0:00:00,2024-06-25 0:00:00,13.4167,76.1667
4072,Banbhag,NULL,76,TRUE,2024-06-25 0:00:00,2024-06-25 0:00:00,25.7919,87.414
4078,Banda,NULL,76,TRUE,2024-06-25 0:00:00,2024-06-25 0:00:00,24.0449,78.9609
4081,Bandalli,NULL,76,TRUE,2024-06-25 0:00:00,2024-06-25 0:00:00,12.164,77.3504
4082,Bandamurlanka,NULL,76,TRUE,2024-06-25 0:00:00,2024-06-25 0:00:00,16.517,81.988
4106,Bandipura,NULL,76,TRUE,2024-06-25 0:00:00,2024-06-25 0:00:00,34.4167,74.65
4109,Bandlaguda,NULL,76,TRUE,2024-06-25 0:00:00,2024-06-25 0:00:00,17.3543,78.3853
4111,Bandora,NULL,76,TRUE,2024-06-25 0:00:00,2024-06-25 0:00:00,15.4082,73.9813
4116,Bandwar,NULL,76,TRUE,2024-06-25 0:00:00,2024-06-25 0:00:00,25.5093,86.1595
4133,Banga,NULL,76,TRUE,2024-06-25 0:00:00,2024-06-25 0:00:00,31.1887,75.9949
4135,Bangalore,NULL,76,TRUE,2024-06-25 0:00:00,2024-06-25 0:00:00,12.9789,77.5917
4136,Banganapalle,NULL,76,TRUE,2024-06-25 0:00:00,2024-06-25 0:00:00,15.3167,78.2333
4137,Bangaon,NULL,76,TRUE,2024-06-25 0:00:00,2024-06-25 0:00:00,23.07,88.82
4138,Bangaon,NULL,76,TRUE,2024-06-25 0:00:00,2024-06-25 0:00:00,25.8673,86.5115
4139,Bangaon,NULL,76,TRUE,2024-06-25 0:00:00,2024-06-25 0:00:00,26.3081,87.8833
4144,Bangawan,NULL,76,TRUE,2024-06-25 0:00:00,2024-06-25 0:00:00,26.0427,87.4202
4152,Bangramanjeshvara,NULL,76,TRUE,2024-06-25 0:00:00,2024-06-25 0:00:00,12.6833,75
4159,Banhatti,NULL,76,TRUE,2024-06-25 0:00:00,2024-06-25 0:00:00,16.3853,75.1494
4181,Bank,NULL,76,TRUE,2024-06-25 0:00:00,2024-06-25 0:00:00,24.9539,84.1928
4182,Bankapur,NULL,76,TRUE,2024-06-25 0:00:00,2024-06-25 0:00:00,14.923,75.2622
4184,Bankheri,NULL,76,TRUE,2024-06-25 0:00:00,2024-06-25 0:00:00,22.7696,78.5341
4185,Banki,NULL,76,TRUE,2024-06-25 0:00:00,2024-06-25 0:00:00,20.3791,85.5295
4186,Banki,NULL,76,TRUE,2024-06-25 0:00:00,2024-06-25 0:00:00,26.1497,86.3626
4188,Bankra,NULL,76,TRUE,2024-06-25 0:00:00,2024-06-25 0:00:00,22.63,88.3
4189,Bankura,NULL,76,TRUE,2024-06-25 0:00:00,2024-06-25 0:00:00,23.25,87.07
4193,Banni,NULL,76,TRUE,2024-06-25 0:00:00,2024-06-25 0:00:00,25.4692,86.6068
4196,Bannur,NULL,76,TRUE,2024-06-25 0:00:00,2024-06-25 0:00:00,12.3329,76.862
4207,Bansbari,NULL,76,TRUE,2024-06-25 0:00:00,2024-06-25 0:00:00,26.1934,87.4498
4208,Bansbaria,NULL,76,TRUE,2024-06-25 0:00:00,2024-06-25 0:00:00,22.97,88.4
4212,Banswada,NULL,76,TRUE,2024-06-25 0:00:00,2024-06-25 0:00:00,18.3833,77.8833
4213,Banta,NULL,76,TRUE,2024-06-25 0:00:00,2024-06-25 0:00:00,24.2323,87.8749
4219,Bantval,NULL,76,TRUE,2024-06-25 0:00:00,2024-06-25 0:00:00,12.8905,75.0349
4220,Banu Chhapra,NULL,76,TRUE,2024-06-25 0:00:00,2024-06-25 0:00:00,26.8098,84.5201
4233,Bapatla,NULL,76,TRUE,2024-06-25 0:00:00,2024-06-25 0:00:00,15.9044,80.4675
4234,Bapaura,NULL,76,TRUE,2024-06-25 0:00:00,2024-06-25 0:00:00,28.815,76.063
4236,Baqiabad,NULL,76,TRUE,2024-06-25 0:00:00,2024-06-25 0:00:00,25.1,82.9
4239,Bar Bigha,NULL,76,TRUE,2024-06-25 0:00:00,2024-06-25 0:00:00,25.2186,85.7332
4240,Bara,NULL,76,TRUE,2024-06-25 0:00:00,2024-06-25 0:00:00,24.3146,87.9643
4241,Bara,NULL,76,TRUE,2024-06-25 0:00:00,2024-06-25 0:00:00,25.9286,86.5237
4242,Bara Belun,NULL,76,TRUE,2024-06-25 0:00:00,2024-06-25 0:00:00,23.4007,87.9733
4243,Bara Khurd,NULL,76,TRUE,2024-06-25 0:00:00,2024-06-25 0:00:00,25.2599,85.4325
4244,Bara Malehra,NULL,76,TRUE,2024-06-25 0:00:00,2024-06-25 0:00:00,24.5681,79.3069
4252,Baragaon,NULL,76,TRUE,2024-06-25 0:00:00,2024-06-25 0:00:00,24.5682,79.0185
4253,Baragaon,NULL,76,TRUE,2024-06-25 0:00:00,2024-06-25 0:00:00,25.1348,85.432
4256,Barah,NULL,76,TRUE,2024-06-25 0:00:00,2024-06-25 0:00:00,25.3885,85.4912
4258,Barahari,NULL,76,TRUE,2024-06-25 0:00:00,2024-06-25 0:00:00,25.7652,87.0937
4259,Barahbatta,NULL,76,TRUE,2024-06-25 0:00:00,2024-06-25 0:00:00,25.7727,85.7522
4260,Barahi,NULL,76,TRUE,2024-06-25 0:00:00,2024-06-25 0:00:00,25.9725,86.7452
4261,Barahkurwa,NULL,76,TRUE,2024-06-25 0:00:00,2024-06-25 0:00:00,26.146,86.9237
4263,Barahpur,NULL,76,TRUE,2024-06-25 0:00:00,2024-06-25 0:00:00,25.4192,85.8762
4264,Barahra,NULL,76,TRUE,2024-06-25 0:00:00,2024-06-25 0:00:00,26.2356,86.5615
4265,Barai,NULL,76,TRUE,2024-06-25 0:00:00,2024-06-25 0:00:00,26.3717,86.0134
4266,Baraidih,NULL,76,TRUE,2024-06-25 0:00:00,2024-06-25 0:00:00,25.9798,86.1434
4267,Barajor,NULL,76,TRUE,2024-06-25 0:00:00,2024-06-25 0:00:00,24.7992,86.3731
4272,Barakpur,NULL,76,TRUE,2024-06-25 0:00:00,2024-06-25 0:00:00,22.76,88.37
4274,Baramati,NULL,76,TRUE,2024-06-25 0:00:00,2024-06-25 0:00:00,18.15,74.58
4275,Baramula,NULL,76,TRUE,2024-06-25 0:00:00,2024-06-25 0:00:00,34.198,74.364
4286,Baraon,NULL,76,TRUE,2024-06-25 0:00:00,2024-06-25 0:00:00,25.4551,84.2661
4288,Bararam,NULL,76,TRUE,2024-06-25 0:00:00,2024-06-25 0:00:00,26.1572,84.3627
4289,Barari,NULL,76,TRUE,2024-06-25 0:00:00,2024-06-25 0:00:00,25.5068,87.3761
4292,Barasat,NULL,76,TRUE,2024-06-25 0:00:00,2024-06-25 0:00:00,22.72,88.48
4293,Barauli,NULL,76,TRUE,2024-06-25 0:00:00,2024-06-25 0:00:00,26.3815,84.5872
4302,Barbana,NULL,76,TRUE,2024-06-25 0:00:00,2024-06-25 0:00:00,26.0719,87.2539
4326,Barddhaman,NULL,76,TRUE,2024-06-25 0:00:00,2024-06-25 0:00:00,23.2333,87.8667
4329,Bardiha Turki,NULL,76,TRUE,2024-06-25 0:00:00,2024-06-25 0:00:00,25.8059,85.5441
4330,Bardipuram,NULL,76,TRUE,2024-06-25 0:00:00,2024-06-25 0:00:00,18.6431,78.1584
4332,Bardoli,NULL,76,TRUE,2024-06-25 0:00:00,2024-06-25 0:00:00,21.12,73.12
4336,Bareh,NULL,76,TRUE,2024-06-25 0:00:00,2024-06-25 0:00:00,26.6786,78.1887
4338,Bareilly,NULL,76,TRUE,2024-06-25 0:00:00,2024-06-25 0:00:00,28.364,79.415
4339,Bareja,NULL,76,TRUE,2024-06-25 0:00:00,2024-06-25 0:00:00,22.85,72.5833
4340,Barela,NULL,76,TRUE,2024-06-25 0:00:00,2024-06-25 0:00:00,23.0968,80.0508
4344,Baretha,NULL,76,TRUE,2024-06-25 0:00:00,2024-06-25 0:00:00,25.5258,87.4485
4346,Bargaon,NULL,76,TRUE,2024-06-25 0:00:00,2024-06-25 0:00:00,25.3455,84.6607
4347,Bargaon,NULL,76,TRUE,2024-06-25 0:00:00,2024-06-25 0:00:00,23.1795,84.6991
4349,Bargarh,NULL,76,TRUE,2024-06-25 0:00:00,2024-06-25 0:00:00,21.3333,83.6167
4352,Barghat,NULL,76,TRUE,2024-06-25 0:00:00,2024-06-25 0:00:00,22.0306,79.7328
4357,Bargur,NULL,76,TRUE,2024-06-25 0:00:00,2024-06-25 0:00:00,12.5429,78.3574
4359,Barhagarh,NULL,76,TRUE,2024-06-25 0:00:00,2024-06-25 0:00:00,19.645,84.4079
4360,Barhampur,NULL,76,TRUE,2024-06-25 0:00:00,2024-06-25 0:00:00,26.3042,86.4729
4361,Barhampur,NULL,76,TRUE,2024-06-25 0:00:00,2024-06-25 0:00:00,25.5976,84.3011
4362,Barhampur,NULL,76,TRUE,2024-06-25 0:00:00,2024-06-25 0:00:00,26.3023,85.7476
4363,Barhan,NULL,76,TRUE,2024-06-25 0:00:00,2024-06-25 0:00:00,27.3299,78.1896
4364,Barharia,NULL,76,TRUE,2024-06-25 0:00:00,2024-06-25 0:00:00,26.3191,84.4547
4365,Barharwa,NULL,76,TRUE,2024-06-25 0:00:00,2024-06-25 0:00:00,24.8571,87.779
4366,Barharwa Kalan,NULL,76,TRUE,2024-06-25 0:00:00,2024-06-25 0:00:00,26.5434,84.8286
4367,Barhauna,NULL,76,TRUE,2024-06-25 0:00:00,2024-06-25 0:00:00,25.6043,85.7288
4368,Barhauna,NULL,76,TRUE,2024-06-25 0:00:00,2024-06-25 0:00:00,25.304,85.4216
4369,Barhi,NULL,76,TRUE,2024-06-25 0:00:00,2024-06-25 0:00:00,23.9033,80.8152
4370,Barhi,NULL,76,TRUE,2024-06-25 0:00:00,2024-06-25 0:00:00,24.3045,85.4195
4371,Barhi,NULL,76,TRUE,2024-06-25 0:00:00,2024-06-25 0:00:00,26.5714,86.0903
4372,Barhi,NULL,76,TRUE,2024-06-25 0:00:00,2024-06-25 0:00:00,26.4629,86.2771
4373,Barhiya,NULL,76,TRUE,2024-06-25 0:00:00,2024-06-25 0:00:00,25.2833,86.0333
4374,Barhni,NULL,76,TRUE,2024-06-25 0:00:00,2024-06-25 0:00:00,27.4972,82.7861
4376,Bari,NULL,76,TRUE,2024-06-25 0:00:00,2024-06-25 0:00:00,26.63,77.62
4377,Bari,NULL,76,TRUE,2024-06-25 0:00:00,2024-06-25 0:00:00,25.8769,86.1918
4379,Bariariya,NULL,76,TRUE,2024-06-25 0:00:00,2024-06-25 0:00:00,26.5105,84.7165
4380,Bariariya Tola Rajpur,NULL,76,TRUE,2024-06-25 0:00:00,2024-06-25 0:00:00,26.4567,84.7043
4381,Bariarpur,NULL,76,TRUE,2024-06-25 0:00:00,2024-06-25 0:00:00,25.686,86.0295
4382,Bariarpur,NULL,76,TRUE,2024-06-25 0:00:00,2024-06-25 0:00:00,25.292,86.571
4383,Bariarpur Kandh,NULL,76,TRUE,2024-06-25 0:00:00,2024-06-25 0:00:00,25.9391,85.4674
4384,Barigarh,NULL,76,TRUE,2024-06-25 0:00:00,2024-06-25 0:00:00,25.2325,80.0347
4389,Baripada,NULL,76,TRUE,2024-06-25 0:00:00,2024-06-25 0:00:00,21.94,86.72
4393,Bariyarpur,NULL,76,TRUE,2024-06-25 0:00:00,2024-06-25 0:00:00,26.6347,84.9245
4395,Barjhar,NULL,76,TRUE,2024-06-25 0:00:00,2024-06-25 0:00:00,22.6012,74.2471
4396,Barjora,NULL,76,TRUE,2024-06-25 0:00:00,2024-06-25 0:00:00,23.4333,87.2833
4397,Barka Gaon,NULL,76,TRUE,2024-06-25 0:00:00,2024-06-25 0:00:00,26.144,84.6598
4398,Barka Parbatta,NULL,76,TRUE,2024-06-25 0:00:00,2024-06-25 0:00:00,25.3396,87.0576
4399,Barkagaon,NULL,76,TRUE,2024-06-25 0:00:00,2024-06-25 0:00:00,23.8651,85.2167
4400,Barki Ballia,NULL,76,TRUE,2024-06-25 0:00:00,2024-06-25 0:00:00,25.4223,86.2758
4401,Barki Saria,NULL,76,TRUE,2024-06-25 0:00:00,2024-06-25 0:00:00,24.1759,85.8894
4405,Barkot,NULL,76,TRUE,2024-06-25 0:00:00,2024-06-25 0:00:00,30.82,78.2
4406,Barkuhi,NULL,76,TRUE,2024-06-25 0:00:00,2024-06-25 0:00:00,22.1901,78.7047
4413,Barnagar,NULL,76,TRUE,2024-06-25 0:00:00,2024-06-25 0:00:00,23.0489,75.378
4414,Barnala,NULL,76,TRUE,2024-06-25 0:00:00,2024-06-25 0:00:00,30.37,75.54
4415,Barnaon,NULL,76,TRUE,2024-06-25 0:00:00,2024-06-25 0:00:00,25.4809,84.525
4420,Barni,NULL,76,TRUE,2024-06-25 0:00:00,2024-06-25 0:00:00,25.3484,85.0594
4421,Barnia,NULL,76,TRUE,2024-06-25 0:00:00,2024-06-25 0:00:00,23.7311,88.4329
4423,Barnoi,NULL,76,TRUE,2024-06-25 0:00:00,2024-06-25 0:00:00,32.43,75.43
4429,Baro,NULL,76,TRUE,2024-06-25 0:00:00,2024-06-25 0:00:00,25.4487,85.9924
4431,Barod,NULL,76,TRUE,2024-06-25 0:00:00,2024-06-25 0:00:00,27.8947,76.3681
4432,Barod,NULL,76,TRUE,2024-06-25 0:00:00,2024-06-25 0:00:00,23.7889,75.8116
4433,Baroda,NULL,76,TRUE,2024-06-25 0:00:00,2024-06-25 0:00:00,25.5,76.65
4434,Barokhar,NULL,76,TRUE,2024-06-25 0:00:00,2024-06-25 0:00:00,24.9167,81.9667
4435,Baroni Khurd,NULL,76,TRUE,2024-06-25 0:00:00,2024-06-25 0:00:00,25.6852,78.3746
4441,Barpathar,NULL,76,TRUE,2024-06-25 0:00:00,2024-06-25 0:00:00,26.2871,93.8884
4442,Barpeta,NULL,76,TRUE,2024-06-25 0:00:00,2024-06-25 0:00:00,26.32,91
4497,Barsaun,NULL,76,TRUE,2024-06-25 0:00:00,2024-06-25 0:00:00,25.6316,84.4372
4517,Baruari,NULL,76,TRUE,2024-06-25 0:00:00,2024-06-25 0:00:00,26.0305,86.5965
4518,Barud,NULL,76,TRUE,2024-06-25 0:00:00,2024-06-25 0:00:00,21.7497,75.527
4520,Barughutu,NULL,76,TRUE,2024-06-25 0:00:00,2024-06-25 0:00:00,23.8038,85.5555
4522,Baruipur,NULL,76,TRUE,2024-06-25 0:00:00,2024-06-25 0:00:00,22.3654,88.4325
4523,Barun,NULL,76,TRUE,2024-06-25 0:00:00,2024-06-25 0:00:00,24.8602,84.2232
4524,Baruni,NULL,76,TRUE,2024-06-25 0:00:00,2024-06-25 0:00:00,25.4751,85.9681
4528,Barvala,NULL,76,TRUE,2024-06-25 0:00:00,2024-06-25 0:00:00,22.15,71.9
4530,Barwa Sagar,NULL,76,TRUE,2024-06-25 0:00:00,2024-06-25 0:00:00,25.3799,78.739
4532,Barwadih,NULL,76,TRUE,2024-06-25 0:00:00,2024-06-25 0:00:00,23.8478,84.1105
4533,Barwah,NULL,76,TRUE,2024-06-25 0:00:00,2024-06-25 0:00:00,22.2539,76.0385
4534,Barwan,NULL,76,TRUE,2024-06-25 0:00:00,2024-06-25 0:00:00,23.9379,87.935
4535,Barwani,NULL,76,TRUE,2024-06-25 0:00:00,2024-06-25 0:00:00,22.03,74.9
4536,Barwat Pasrain,NULL,76,TRUE,2024-06-25 0:00:00,2024-06-25 0:00:00,26.7925,84.5469
4543,Basaha,NULL,76,TRUE,2024-06-25 0:00:00,2024-06-25 0:00:00,26.1329,86.748
4544,Basaithi,NULL,76,TRUE,2024-06-25 0:00:00,2024-06-25 0:00:00,26.0284,87.3329
4546,Basantpur,NULL,76,TRUE,2024-06-25 0:00:00,2024-06-25 0:00:00,26.1331,87.4656
4547,Basaon,NULL,76,TRUE,2024-06-25 0:00:00,2024-06-25 0:00:00,26.2082,84.6174
4548,Basapatna,NULL,76,TRUE,2024-06-25 0:00:00,2024-06-25 0:00:00,15.4302,76.4869
4550,Basarh,NULL,76,TRUE,2024-06-25 0:00:00,2024-06-25 0:00:00,25.9808,85.1285
4551,Basatpur,NULL,76,TRUE,2024-06-25 0:00:00,2024-06-25 0:00:00,26.0011,85.0643
4552,Basavakalyan,NULL,76,TRUE,2024-06-25 0:00:00,2024-06-25 0:00:00,17.8728,76.9497
4553,Basavana Bagevadi,NULL,76,TRUE,2024-06-25 0:00:00,2024-06-25 0:00:00,16.5728,75.9725
4556,Basbiti,NULL,76,TRUE,2024-06-25 0:00:00,2024-06-25 0:00:00,26.0939,86.5289
4558,Basdeopur,NULL,76,TRUE,2024-06-25 0:00:00,2024-06-25 0:00:00,25.3909,86.6821
4564,Basi,NULL,76,TRUE,2024-06-25 0:00:00,2024-06-25 0:00:00,30.5872,76.8428
4569,Basirhat,NULL,76,TRUE,2024-06-25 0:00:00,2024-06-25 0:00:00,22.6572,88.8942
4575,Basmanpur,NULL,76,TRUE,2024-06-25 0:00:00,2024-06-25 0:00:00,26.6433,84.9789
4577,Basni,NULL,76,TRUE,2024-06-25 0:00:00,2024-06-25 0:00:00,25.4435,82.8291
4578,Basoda,NULL,76,TRUE,2024-06-25 0:00:00,2024-06-25 0:00:00,23.8515,77.9365
4580,Basopatti,NULL,76,TRUE,2024-06-25 0:00:00,2024-06-25 0:00:00,26.578,86.0052
4581,Basrur,NULL,76,TRUE,2024-06-25 0:00:00,2024-06-25 0:00:00,13.6308,74.7377
4590,Bassian,NULL,76,TRUE,2024-06-25 0:00:00,2024-06-25 0:00:00,30.6559,75.5389
4602,Basudebpur,NULL,76,TRUE,2024-06-25 0:00:00,2024-06-25 0:00:00,21.1197,86.729
4603,Basudebpur,NULL,76,TRUE,2024-06-25 0:00:00,2024-06-25 0:00:00,21.8256,87.619
4615,Batala,NULL,76,TRUE,2024-06-25 0:00:00,2024-06-25 0:00:00,31.8186,75.2028
4627,Bataredh,NULL,76,TRUE,2024-06-25 0:00:00,2024-06-25 0:00:00,26.425,84.6061
4640,Bathnaha,NULL,76,TRUE,2024-06-25 0:00:00,2024-06-25 0:00:00,26.6433,85.5747
4663,Battulapalle,NULL,76,TRUE,2024-06-25 0:00:00,2024-06-25 0:00:00,14.5167,77.7833
4672,Baturbari,NULL,76,TRUE,2024-06-25 0:00:00,2024-06-25 0:00:00,26.2281,87.4714
4679,Baud,NULL,76,TRUE,2024-06-25 0:00:00,2024-06-25 0:00:00,20.84,84.32
4681,Baulia,NULL,76,TRUE,2024-06-25 0:00:00,2024-06-25 0:00:00,25.399,87.6002
4685,Bauria,NULL,76,TRUE,2024-06-25 0:00:00,2024-06-25 0:00:00,22.4521,88.1853
4695,Bawali,NULL,76,TRUE,2024-06-25 0:00:00,2024-06-25 0:00:00,22.4041,88.1852
4696,Bawana,NULL,76,TRUE,2024-06-25 0:00:00,2024-06-25 0:00:00,28.762,77.063
4722,Bayaram,NULL,76,TRUE,2024-06-25 0:00:00,2024-06-25 0:00:00,18.0506,80.7375
4737,Baynala,NULL,76,TRUE,2024-06-25 0:00:00,2024-06-25 0:00:00,22.4835,88.4997
4762,Bayyanagudem,NULL,76,TRUE,2024-06-25 0:00:00,2024-06-25 0:00:00,17.125,81.3628
4763,Bayyavaram,NULL,76,TRUE,2024-06-25 0:00:00,2024-06-25 0:00:00,17.6638,82.942
4773,Bazid Chak Kasturi,NULL,76,TRUE,2024-06-25 0:00:00,2024-06-25 0:00:00,25.6559,85.4412
4774,Bazidpur,NULL,76,TRUE,2024-06-25 0:00:00,2024-06-25 0:00:00,26.1536,86.1511
4775,Bazidpur Madhaul,NULL,76,TRUE,2024-06-25 0:00:00,2024-06-25 0:00:00,25.5236,85.4572
4814,Beawar,NULL,76,TRUE,2024-06-25 0:00:00,2024-06-25 0:00:00,26.1,74.32
4883,Begamganj,NULL,76,TRUE,2024-06-25 0:00:00,2024-06-25 0:00:00,23.5992,78.3406
4884,Begampur,NULL,76,TRUE,2024-06-25 0:00:00,2024-06-25 0:00:00,22.3705,88.494
4885,Begampur,NULL,76,TRUE,2024-06-25 0:00:00,2024-06-25 0:00:00,22.7368,88.2518
4890,Begowal,NULL,76,TRUE,2024-06-25 0:00:00,2024-06-25 0:00:00,31.6125,75.5194
4892,Begusarai,NULL,76,TRUE,2024-06-25 0:00:00,2024-06-25 0:00:00,25.42,86.13
4895,Behat,NULL,76,TRUE,2024-06-25 0:00:00,2024-06-25 0:00:00,26.2435,86.2799
4900,Behror,NULL,76,TRUE,2024-06-25 0:00:00,2024-06-25 0:00:00,27.8903,76.2861
4946,Beko,NULL,76,TRUE,2024-06-25 0:00:00,2024-06-25 0:00:00,24.0415,85.9536
4958,Bela,NULL,76,TRUE,2024-06-25 0:00:00,2024-06-25 0:00:00,25.8103,85.0157
4959,Bela,NULL,76,TRUE,2024-06-25 0:00:00,2024-06-25 0:00:00,26.4989,86.3242
4960,Bela,NULL,76,TRUE,2024-06-25 0:00:00,2024-06-25 0:00:00,24.9689,84.974
4964,Bela Simri,NULL,76,TRUE,2024-06-25 0:00:00,2024-06-25 0:00:00,25.5295,86.3079
4970,Beladi,NULL,76,TRUE,2024-06-25 0:00:00,2024-06-25 0:00:00,13.1464,74.9399
4971,Belagal,NULL,76,TRUE,2024-06-25 0:00:00,2024-06-25 0:00:00,15.8183,77.6702
4972,Belagola,NULL,76,TRUE,2024-06-25 0:00:00,2024-06-25 0:00:00,13.3833,75.5833
4974,Belakoba,NULL,76,TRUE,2024-06-25 0:00:00,2024-06-25 0:00:00,26.59,88.589
4975,Belakvadi,NULL,76,TRUE,2024-06-25 0:00:00,2024-06-25 0:00:00,12.255,77.1225
4980,Belampalli,NULL,76,TRUE,2024-06-25 0:00:00,2024-06-25 0:00:00,19.0756,79.4881
4982,Belao,NULL,76,TRUE,2024-06-25 0:00:00,2024-06-25 0:00:00,25.1476,85.7377
4983,Belari,NULL,76,TRUE,2024-06-25 0:00:00,2024-06-25 0:00:00,25.9655,86.9161
4986,Belauncha,NULL,76,TRUE,2024-06-25 0:00:00,2024-06-25 0:00:00,26.2124,86.3554
4987,Belaur,NULL,76,TRUE,2024-06-25 0:00:00,2024-06-25 0:00:00,25.4477,84.6473
4996,Beldanga,NULL,76,TRUE,2024-06-25 0:00:00,2024-06-25 0:00:00,23.93,88.25
4997,Beldanga,NULL,76,TRUE,2024-06-25 0:00:00,2024-06-25 0:00:00,24.7041,87.873
4998,Beldaur,NULL,76,TRUE,2024-06-25 0:00:00,2024-06-25 0:00:00,25.5947,86.7909
5018,Belgaum,NULL,76,TRUE,2024-06-25 0:00:00,2024-06-25 0:00:00,15.85,74.5
5023,Belhatti,NULL,76,TRUE,2024-06-25 0:00:00,2024-06-25 0:00:00,15.0818,75.6465
5024,Belhi,NULL,76,TRUE,2024-06-25 0:00:00,2024-06-25 0:00:00,26.5769,86.1723
5044,Bellamkonda,NULL,76,TRUE,2024-06-25 0:00:00,2024-06-25 0:00:00,16.4922,80.0089
5045,Bellary,NULL,76,TRUE,2024-06-25 0:00:00,2024-06-25 0:00:00,15.1,76.9167
5046,Bellatti,NULL,76,TRUE,2024-06-25 0:00:00,2024-06-25 0:00:00,12.65,78
5080,Belma,NULL,76,TRUE,2024-06-25 0:00:00,2024-06-25 0:00:00,12.87,74.84
5088,Belo,NULL,76,TRUE,2024-06-25 0:00:00,2024-06-25 0:00:00,25.8747,86.8855
5103,Belonia,NULL,76,TRUE,2024-06-25 0:00:00,2024-06-25 0:00:00,23.25,91.45
5113,Belpara,NULL,76,TRUE,2024-06-25 0:00:00,2024-06-25 0:00:00,20.5889,82.9729
5116,Belpukur,NULL,76,TRUE,2024-06-25 0:00:00,2024-06-25 0:00:00,21.9851,88.2125
5117,Belsand,NULL,76,TRUE,2024-06-25 0:00:00,2024-06-25 0:00:00,26.4436,85.4008
5118,Belsandi Tara,NULL,76,TRUE,2024-06-25 0:00:00,2024-06-25 0:00:00,25.7722,85.9608
5119,Belsara,NULL,76,TRUE,2024-06-25 0:00:00,2024-06-25 0:00:00,26.0152,87.2023
5121,Beltangadi,NULL,76,TRUE,2024-06-25 0:00:00,2024-06-25 0:00:00,12.9795,75.2699
5127,Belur,NULL,76,TRUE,2024-06-25 0:00:00,2024-06-25 0:00:00,13.1629,75.8571
5128,Belur,NULL,76,TRUE,2024-06-25 0:00:00,2024-06-25 0:00:00,11.7075,78.4144
5132,Belwa,NULL,76,TRUE,2024-06-25 0:00:00,2024-06-25 0:00:00,26.1056,87.4916
5133,Belwara,NULL,76,TRUE,2024-06-25 0:00:00,2024-06-25 0:00:00,25.7443,86.4755
5166,Benaulim,NULL,76,TRUE,2024-06-25 0:00:00,2024-06-25 0:00:00,15.27,73.9346
5172,Bendapudi,NULL,76,TRUE,2024-06-25 0:00:00,2024-06-25 0:00:00,17.2673,82.3758
5173,Bendarhalli,NULL,76,TRUE,2024-06-25 0:00:00,2024-06-25 0:00:00,12.15,77.1
5178,Bendrahalli,NULL,76,TRUE,2024-06-25 0:00:00,2024-06-25 0:00:00,12.2642,78.3223
5226,Benipati,NULL,76,TRUE,2024-06-25 0:00:00,2024-06-25 0:00:00,26.4442,85.9083
5257,Beohari,NULL,76,TRUE,2024-06-25 0:00:00,2024-06-25 0:00:00,24.0242,81.3783
5272,Berchha,NULL,76,TRUE,2024-06-25 0:00:00,2024-06-25 0:00:00,23.2823,76.3199
5312,Berikai,NULL,76,TRUE,2024-06-25 0:00:00,2024-06-25 0:00:00,12.8056,77.971
5334,Bermo,NULL,76,TRUE,2024-06-25 0:00:00,2024-06-25 0:00:00,23.7878,85.9353
5367,Berubari,NULL,76,TRUE,2024-06-25 0:00:00,2024-06-25 0:00:00,26.3603,88.7152
5373,Besagarahalli,NULL,76,TRUE,2024-06-25 0:00:00,2024-06-25 0:00:00,12.6333,77
5377,Besarh,NULL,76,TRUE,2024-06-25 0:00:00,2024-06-25 0:00:00,25.9537,87.0491
5394,Betamcherla,NULL,76,TRUE,2024-06-25 0:00:00,2024-06-25 0:00:00,15.4667,78.1667
5419,Betigeri,NULL,76,TRUE,2024-06-25 0:00:00,2024-06-25 0:00:00,15.443,75.6442
5422,Betma,NULL,76,TRUE,2024-06-25 0:00:00,2024-06-25 0:00:00,22.68,75.62
5423,Betmangala,NULL,76,TRUE,2024-06-25 0:00:00,2024-06-25 0:00:00,13.0085,78.3282
5424,Betnoti,NULL,76,TRUE,2024-06-25 0:00:00,2024-06-25 0:00:00,21.7355,86.8499
5433,Bettiah,NULL,76,TRUE,2024-06-25 0:00:00,2024-06-25 0:00:00,26.8014,84.5028
5436,Betul Bazar,NULL,76,TRUE,2024-06-25 0:00:00,2024-06-25 0:00:00,21.905,77.902
5441,Beur,NULL,76,TRUE,2024-06-25 0:00:00,2024-06-25 0:00:00,25.569,85.0944
5470,Beypore,NULL,76,TRUE,2024-06-25 0:00:00,2024-06-25 0:00:00,11.18,75.82
5479,Bhabanipur,NULL,76,TRUE,2024-06-25 0:00:00,2024-06-25 0:00:00,24.7153,87.9227
5480,Bhabhua,NULL,76,TRUE,2024-06-25 0:00:00,2024-06-25 0:00:00,25.05,83.62
5481,Bhachau,NULL,76,TRUE,2024-06-25 0:00:00,2024-06-25 0:00:00,23.296,70.343
5482,Bhachhi,NULL,76,TRUE,2024-06-25 0:00:00,2024-06-25 0:00:00,26.3404,86.0585
5483,Bhachhi Asli,NULL,76,TRUE,2024-06-25 0:00:00,2024-06-25 0:00:00,26.0147,86.0444
5484,Bhadarwah,NULL,76,TRUE,2024-06-25 0:00:00,2024-06-25 0:00:00,32.98,75.7137
5485,Bhadas,NULL,76,TRUE,2024-06-25 0:00:00,2024-06-25 0:00:00,25.5184,86.4434
5486,Bhadaur,NULL,76,TRUE,2024-06-25 0:00:00,2024-06-25 0:00:00,30.4764,75.3306
5487,Bhado Khara,NULL,76,TRUE,2024-06-25 0:00:00,2024-06-25 0:00:00,24.9567,85.513
5488,Bhadohi,NULL,76,TRUE,2024-06-25 0:00:00,2024-06-25 0:00:00,25.42,82.57
5489,Bhadrachalam,NULL,76,TRUE,2024-06-25 0:00:00,2024-06-25 0:00:00,17.6688,80.8936
5490,Bhadrakh,NULL,76,TRUE,2024-06-25 0:00:00,2024-06-25 0:00:00,21.0545,86.5156
5492,Bhadravati,NULL,76,TRUE,2024-06-25 0:00:00,2024-06-25 0:00:00,13.8485,75.705
5493,Bhadreswar,NULL,76,TRUE,2024-06-25 0:00:00,2024-06-25 0:00:00,22.82,88.35
5494,Bhadsara,NULL,76,TRUE,2024-06-25 0:00:00,2024-06-25 0:00:00,25.3696,84.8444
5495,Bhadwar,NULL,76,TRUE,2024-06-25 0:00:00,2024-06-25 0:00:00,25.5576,84.7559
5496,Bhagabanpur,NULL,76,TRUE,2024-06-25 0:00:00,2024-06-25 0:00:00,24.7765,88.0217
5497,Bhagalpur,NULL,76,TRUE,2024-06-25 0:00:00,2024-06-25 0:00:00,25.25,87
5498,Bhagatpur,NULL,76,TRUE,2024-06-25 0:00:00,2024-06-25 0:00:00,25.4098,86.3076
5499,Bhagirathpur,NULL,76,TRUE,2024-06-25 0:00:00,2024-06-25 0:00:00,24.0884,88.4947
5500,Bhagsar,NULL,76,TRUE,2024-06-25 0:00:00,2024-06-25 0:00:00,30.4417,74.4023
5501,Bhagta,NULL,76,TRUE,2024-06-25 0:00:00,2024-06-25 0:00:00,30.4882,75.1013
5502,Bhagwangola,NULL,76,TRUE,2024-06-25 0:00:00,2024-06-25 0:00:00,24.3485,88.3243
5503,Bhagwanpur Desua,NULL,76,TRUE,2024-06-25 0:00:00,2024-06-25 0:00:00,25.8124,85.8382
5504,Bhagwanpur Khurd,NULL,76,TRUE,2024-06-25 0:00:00,2024-06-25 0:00:00,26.75,83.74
5505,Bhagwatpur,NULL,76,TRUE,2024-06-25 0:00:00,2024-06-25 0:00:00,25.7484,85.7016
5506,Bhai Rupa,NULL,76,TRUE,2024-06-25 0:00:00,2024-06-25 0:00:00,30.4311,75.2206
5507,Bhainsa,NULL,76,TRUE,2024-06-25 0:00:00,2024-06-25 0:00:00,19.1,77.9667
5508,Bhainsahi,NULL,76,TRUE,2024-06-25 0:00:00,2024-06-25 0:00:00,26.4404,84.5443
5509,Bhainsdehi,NULL,76,TRUE,2024-06-25 0:00:00,2024-06-25 0:00:00,21.6449,77.6302
5510,Bhainsoda,NULL,76,TRUE,2024-06-25 0:00:00,2024-06-25 0:00:00,24.4427,75.8403
5512,Bhairapura,NULL,76,TRUE,2024-06-25 0:00:00,2024-06-25 0:00:00,12.2119,76.8953
5514,Bhaisalotan,NULL,76,TRUE,2024-06-25 0:00:00,2024-06-25 0:00:00,27.45,83.9167
5518,Bhakua,NULL,76,TRUE,2024-06-25 0:00:00,2024-06-25 0:00:00,26.5167,86.1974
5520,Bhalki,NULL,76,TRUE,2024-06-25 0:00:00,2024-06-25 0:00:00,18.0435,77.206
5521,Bhalpatti,NULL,76,TRUE,2024-06-25 0:00:00,2024-06-25 0:00:00,26.1853,86.0509
5522,Bhalswa Jahangirpur,NULL,76,TRUE,2024-06-25 0:00:00,2024-06-25 0:00:00,28.7354,77.1638
5523,Bhaluhar,NULL,76,TRUE,2024-06-25 0:00:00,2024-06-25 0:00:00,24.82,84.65
5525,Bhambia Bhai,NULL,76,TRUE,2024-06-25 0:00:00,2024-06-25 0:00:00,30.4812,75.094
5527,Bhanas Hivre,NULL,76,TRUE,2024-06-25 0:00:00,2024-06-25 0:00:00,19.4858,74.9664
5529,Bhandarso,NULL,76,TRUE,2024-06-25 0:00:00,2024-06-25 0:00:00,26.178,86.1415
5530,Bhander,NULL,76,TRUE,2024-06-25 0:00:00,2024-06-25 0:00:00,25.7358,78.7456
5531,Bhangar,NULL,76,TRUE,2024-06-25 0:00:00,2024-06-25 0:00:00,22.58,88.42
5532,Bhangha,NULL,76,TRUE,2024-06-25 0:00:00,2024-06-25 0:00:00,25.578,87.2782
5533,Bhanghi,NULL,76,TRUE,2024-06-25 0:00:00,2024-06-25 0:00:00,26.3612,87.1826
5534,Bhankarpur,NULL,76,TRUE,2024-06-25 0:00:00,2024-06-25 0:00:00,30.65,76.82
5535,Bhanpura,NULL,76,TRUE,2024-06-25 0:00:00,2024-06-25 0:00:00,24.5108,75.7483
5536,Bhansia,NULL,76,TRUE,2024-06-25 0:00:00,2024-06-25 0:00:00,26.0992,87.5316
5537,Bhanukumari,NULL,76,TRUE,2024-06-25 0:00:00,2024-06-25 0:00:00,26.3395,89.7697
5538,Bhanumukkala,NULL,76,TRUE,2024-06-25 0:00:00,2024-06-25 0:00:00,15.3119,78.2277
5539,Bhanuvalli,NULL,76,TRUE,2024-06-25 0:00:00,2024-06-25 0:00:00,14.4333,75.7667
5540,Bhanvad,NULL,76,TRUE,2024-06-25 0:00:00,2024-06-25 0:00:00,21.93,69.78
5541,Bharanikavu Tekku,NULL,76,TRUE,2024-06-25 0:00:00,2024-06-25 0:00:00,9.1847,76.5446
5543,Bharatpur,NULL,76,TRUE,2024-06-25 0:00:00,2024-06-25 0:00:00,27.22,77.48
5545,Bhargaon,NULL,76,TRUE,2024-06-25 0:00:00,2024-06-25 0:00:00,26.075,87.1483
5546,Bharhopur,NULL,76,TRUE,2024-06-25 0:00:00,2024-06-25 0:00:00,25.9488,84.5274
5547,Bharno,NULL,76,TRUE,2024-06-25 0:00:00,2024-06-25 0:00:00,23.2204,84.8891
5548,Bharokhara,NULL,76,TRUE,2024-06-25 0:00:00,2024-06-25 0:00:00,25.8655,85.6834
5549,Bharra,NULL,76,TRUE,2024-06-25 0:00:00,2024-06-25 0:00:00,25.4398,86.1624
5550,Bharuch,NULL,76,TRUE,2024-06-25 0:00:00,2024-06-25 0:00:00,21.712,72.993
5551,Bharweli,NULL,76,TRUE,2024-06-25 0:00:00,2024-06-25 0:00:00,21.8373,80.2271
5552,Bhasaula Danapur,NULL,76,TRUE,2024-06-25 0:00:00,2024-06-25 0:00:00,25.5509,85.0308
5553,Bhasawar,NULL,76,TRUE,2024-06-25 0:00:00,2024-06-25 0:00:00,27.0361,77.0528
5554,Bhataulia,NULL,76,TRUE,2024-06-25 0:00:00,2024-06-25 0:00:00,26.4771,84.7789
5555,Bhatinda,NULL,76,TRUE,2024-06-25 0:00:00,2024-06-25 0:00:00,30.23,74.9519
5556,Bhatkal,NULL,76,TRUE,2024-06-25 0:00:00,2024-06-25 0:00:00,13.9853,74.5553
5557,Bhatkhori,NULL,76,TRUE,2024-06-25 0:00:00,2024-06-25 0:00:00,25.9156,86.9072
5558,Bhatpalli,NULL,76,TRUE,2024-06-25 0:00:00,2024-06-25 0:00:00,18.4293,79.8635
5559,Bhatpara,NULL,76,TRUE,2024-06-25 0:00:00,2024-06-25 0:00:00,22.87,88.41
5560,Bhatpuri,NULL,76,TRUE,2024-06-25 0:00:00,2024-06-25 0:00:00,29.17,79.16
5561,Bhatranha,NULL,76,TRUE,2024-06-25 0:00:00,2024-06-25 0:00:00,25.9846,86.6348
5562,Bhattiprolu,NULL,76,TRUE,2024-06-25 0:00:00,2024-06-25 0:00:00,16.1026,80.7807
5563,Bhattu Kolan,NULL,76,TRUE,2024-06-25 0:00:00,2024-06-25 0:00:00,29.3872,75.3422
5564,Bhaur,NULL,76,TRUE,2024-06-25 0:00:00,2024-06-25 0:00:00,26.2751,86.1552
5565,Bhauradah,NULL,76,TRUE,2024-06-25 0:00:00,2024-06-25 0:00:00,26.252,87.86
5566,Bhavani,NULL,76,TRUE,2024-06-25 0:00:00,2024-06-25 0:00:00,11.4455,77.6821
5567,Bhavnagar,NULL,76,TRUE,2024-06-25 0:00:00,2024-06-25 0:00:00,21.76,72.15
5569,Bhawanandpur,NULL,76,TRUE,2024-06-25 0:00:00,2024-06-25 0:00:00,25.54,86.103
5570,Bhawanigarh,NULL,76,TRUE,2024-06-25 0:00:00,2024-06-25 0:00:00,30.27,76.04
5571,Bhawanipatna,NULL,76,TRUE,2024-06-25 0:00:00,2024-06-25 0:00:00,19.91,83.128
5572,Bhawanipur,NULL,76,TRUE,2024-06-25 0:00:00,2024-06-25 0:00:00,26.4361,84.7356
5573,Bhawanipur,NULL,76,TRUE,2024-06-25 0:00:00,2024-06-25 0:00:00,25.3944,87.1264
5574,Bhawanipur,NULL,76,TRUE,2024-06-25 0:00:00,2024-06-25 0:00:00,26.2385,86.0995
5575,Bhawanipur Rajdham,NULL,76,TRUE,2024-06-25 0:00:00,2024-06-25 0:00:00,25.6501,87.1396
5576,Bhayala,NULL,76,TRUE,2024-06-25 0:00:00,2024-06-25 0:00:00,22.8335,72.3643
5577,Bhayandar,NULL,76,TRUE,2024-06-25 0:00:00,2024-06-25 0:00:00,19.29,72.85
5578,Bheja,NULL,76,TRUE,2024-06-25 0:00:00,2024-06-25 0:00:00,26.1046,86.395
5579,Bhelsi,NULL,76,TRUE,2024-06-25 0:00:00,2024-06-25 0:00:00,24.7866,79.1281
5580,Bhikhi,NULL,76,TRUE,2024-06-25 0:00:00,2024-06-25 0:00:00,30.07,75.53
5581,Bhikkiwind Uttar,NULL,76,TRUE,2024-06-25 0:00:00,2024-06-25 0:00:00,31.3453,74.6914
5582,Bhilai,NULL,76,TRUE,2024-06-25 0:00:00,2024-06-25 0:00:00,21.21,81.38
5583,Bhilai Karanja,NULL,76,TRUE,2024-06-25 0:00:00,2024-06-25 0:00:00,21.2198,81.4575
5584,Bhilavadi,NULL,76,TRUE,2024-06-25 0:00:00,2024-06-25 0:00:00,16.8586,74.3317
5585,Bhiloda,NULL,76,TRUE,2024-06-25 0:00:00,2024-06-25 0:00:00,23.46,73.15
5586,Bhilwara,NULL,76,TRUE,2024-06-25 0:00:00,2024-06-25 0:00:00,25.35,74.63
5587,Bhimadolu,NULL,76,TRUE,2024-06-25 0:00:00,2024-06-25 0:00:00,16.8144,81.2617
5588,Bhimavaram,NULL,76,TRUE,2024-06-25 0:00:00,2024-06-25 0:00:00,16.543,81.523
5591,Bhimunipatnam,NULL,76,TRUE,2024-06-25 0:00:00,2024-06-25 0:00:00,17.8846,83.4393
5592,Bhind,NULL,76,TRUE,2024-06-25 0:00:00,2024-06-25 0:00:00,26.5587,78.7871
5593,Bhiraha,NULL,76,TRUE,2024-06-25 0:00:00,2024-06-25 0:00:00,25.7978,86.0736
5594,Bhirua,NULL,76,TRUE,2024-06-25 0:00:00,2024-06-25 0:00:00,25.8509,86.3319
5596,Bhit Bhagwanpur,NULL,76,TRUE,2024-06-25 0:00:00,2024-06-25 0:00:00,26.116,86.355
5597,Bhitarwar,NULL,76,TRUE,2024-06-25 0:00:00,2024-06-25 0:00:00,25.7922,78.1108
5598,Bhiwandi,NULL,76,TRUE,2024-06-25 0:00:00,2024-06-25 0:00:00,19.2967,73.0631
5599,Bhiwani,NULL,76,TRUE,2024-06-25 0:00:00,2024-06-25 0:00:00,28.78,76.13
5600,Bhogapuram,NULL,76,TRUE,2024-06-25 0:00:00,2024-06-25 0:00:00,18.0311,83.4967
5601,Bhogpur,NULL,76,TRUE,2024-06-25 0:00:00,2024-06-25 0:00:00,31.55,75.63
5602,Bhoj,NULL,76,TRUE,2024-06-25 0:00:00,2024-06-25 0:00:00,16.5333,74.45
5603,Bhojpur Jadid,NULL,76,TRUE,2024-06-25 0:00:00,2024-06-25 0:00:00,25.588,84.1621
5604,Bhojpur Kadim,NULL,76,TRUE,2024-06-25 0:00:00,2024-06-25 0:00:00,25.5841,84.1265
5606,Bholsar,NULL,76,TRUE,2024-06-25 0:00:00,2024-06-25 0:00:00,25.2133,87.2147
5607,Bhongir,NULL,76,TRUE,2024-06-25 0:00:00,2024-06-25 0:00:00,17.51,78.89
5608,Bhopal,NULL,76,TRUE,2024-06-25 0:00:00,2024-06-25 0:00:00,23.2599,77.4126
5609,Bhopalia,NULL,76,TRUE,2024-06-25 0:00:00,2024-06-25 0:00:00,22.2791,73.7104
5610,Bhopatpur,NULL,76,TRUE,2024-06-25 0:00:00,2024-06-25 0:00:00,26.4495,84.8545
5611,Bhuban,NULL,76,TRUE,2024-06-25 0:00:00,2024-06-25 0:00:00,20.882,85.8333
5612,Bhubaneshwar,NULL,76,TRUE,2024-06-25 0:00:00,2024-06-25 0:00:00,20.2644,85.8281
5613,Bhucho Mandi,NULL,76,TRUE,2024-06-25 0:00:00,2024-06-25 0:00:00,30.2129,75.0969
5614,Bhui,NULL,76,TRUE,2024-06-25 0:00:00,2024-06-25 0:00:00,25.0894,85.3888
5615,Bhuj,NULL,76,TRUE,2024-06-25 0:00:00,2024-06-25 0:00:00,23.25,69.67
5616,Bhulwal,NULL,76,TRUE,2024-06-25 0:00:00,2024-06-25 0:00:00,32.8094,74.7683
5617,Bhusaval,NULL,76,TRUE,2024-06-25 0:00:00,2024-06-25 0:00:00,21.05,75.77
5627,Biaora,NULL,76,TRUE,2024-06-25 0:00:00,2024-06-25 0:00:00,23.9163,76.9112
5639,Bibhutpur,NULL,76,TRUE,2024-06-25 0:00:00,2024-06-25 0:00:00,25.6878,85.9992
5640,Bibipet,NULL,76,TRUE,2024-06-25 0:00:00,2024-06-25 0:00:00,18.2101,78.5221
5646,Bichkunda,NULL,76,TRUE,2024-06-25 0:00:00,2024-06-25 0:00:00,18.4,77.7167
5652,Bidar,NULL,76,TRUE,2024-06-25 0:00:00,2024-06-25 0:00:00,17.912,77.52
5655,Biddupur,NULL,76,TRUE,2024-06-25 0:00:00,2024-06-25 0:00:00,25.6464,85.3203
5657,Bideipur,NULL,76,TRUE,2024-06-25 0:00:00,2024-06-25 0:00:00,21.0147,86.8195
5694,Bihar,NULL,76,TRUE,2024-06-25 0:00:00,2024-06-25 0:00:00,25.197,85.518
5696,Bihariganj,NULL,76,TRUE,2024-06-25 0:00:00,2024-06-25 0:00:00,25.7341,86.9884
5697,Bihat,NULL,76,TRUE,2024-06-25 0:00:00,2024-06-25 0:00:00,25.4253,86.0208
5698,Bihpur,NULL,76,TRUE,2024-06-25 0:00:00,2024-06-25 0:00:00,25.3889,86.9337
5699,Bihpuriagaon,NULL,76,TRUE,2024-06-25 0:00:00,2024-06-25 0:00:00,27.0172,93.9167
5700,Bihta,NULL,76,TRUE,2024-06-25 0:00:00,2024-06-25 0:00:00,25.5619,84.87
5701,Bijai,NULL,76,TRUE,2024-06-25 0:00:00,2024-06-25 0:00:00,25.4711,87.0874
5702,Bijaipur,NULL,76,TRUE,2024-06-25 0:00:00,2024-06-25 0:00:00,26.0556,77.3697
5703,Bijapur,NULL,76,TRUE,2024-06-25 0:00:00,2024-06-25 0:00:00,16.83,75.71
5705,Bijawar,NULL,76,TRUE,2024-06-25 0:00:00,2024-06-25 0:00:00,24.6235,79.4899
5706,Bijaynagar,NULL,76,TRUE,2024-06-25 0:00:00,2024-06-25 0:00:00,25.93,74.6386
5707,Bijbiara,NULL,76,TRUE,2024-06-25 0:00:00,2024-06-25 0:00:00,33.7938,75.107
5710,Bijeraghogarh,NULL,76,TRUE,2024-06-25 0:00:00,2024-06-25 0:00:00,23.9955,80.6066
5713,Bijni,NULL,76,TRUE,2024-06-25 0:00:00,2024-06-25 0:00:00,26.4959,90.703
5714,Bijnor,NULL,76,TRUE,2024-06-25 0:00:00,2024-06-25 0:00:00,29.37,78.13
5715,Bikaner,NULL,76,TRUE,2024-06-25 0:00:00,2024-06-25 0:00:00,28.0181,73.3169
5718,Bikkatti,NULL,76,TRUE,2024-06-25 0:00:00,2024-06-25 0:00:00,11.3741,76.7513
5719,Bikkavolu,NULL,76,TRUE,2024-06-25 0:00:00,2024-06-25 0:00:00,16.95,82.05
5720,Biknur,NULL,76,TRUE,2024-06-25 0:00:00,2024-06-25 0:00:00,18.215,78.4367
5722,Bikramganj,NULL,76,TRUE,2024-06-25 0:00:00,2024-06-25 0:00:00,25.2107,84.2551
5723,Bikrampur Bande,NULL,76,TRUE,2024-06-25 0:00:00,2024-06-25 0:00:00,25.8415,85.7424
5727,Bilara,NULL,76,TRUE,2024-06-25 0:00:00,2024-06-25 0:00:00,26.1792,73.7056
5728,Bilasipara,NULL,76,TRUE,2024-06-25 0:00:00,2024-06-25 0:00:00,26.2328,90.2341
5729,Bilaspur,NULL,76,TRUE,2024-06-25 0:00:00,2024-06-25 0:00:00,22.09,82.15
5730,Bilaspur,NULL,76,TRUE,2024-06-25 0:00:00,2024-06-25 0:00:00,31.33,76.75
5731,Bilaspur,NULL,76,TRUE,2024-06-25 0:00:00,2024-06-25 0:00:00,30.32,77.32
5733,Bilaua,NULL,76,TRUE,2024-06-25 0:00:00,2024-06-25 0:00:00,26.0501,78.2752
5734,Bilauri,NULL,76,TRUE,2024-06-25 0:00:00,2024-06-25 0:00:00,25.7703,87.5163
5740,Bilehra,NULL,76,TRUE,2024-06-25 0:00:00,2024-06-25 0:00:00,23.6463,78.7311
5742,Bilga,NULL,76,TRUE,2024-06-25 0:00:00,2024-06-25 0:00:00,31.05,75.65
5743,Bilgi,NULL,76,TRUE,2024-06-25 0:00:00,2024-06-25 0:00:00,16.3472,75.6181
5748,Bilimora,NULL,76,TRUE,2024-06-25 0:00:00,2024-06-25 0:00:00,20.75,72.95
5752,Billapadu,NULL,76,TRUE,2024-06-25 0:00:00,2024-06-25 0:00:00,16.6364,80.9661
5770,Bilpura,NULL,76,TRUE,2024-06-25 0:00:00,2024-06-25 0:00:00,23.2216,79.9917
5778,Bimawan,NULL,76,TRUE,2024-06-25 0:00:00,2024-06-25 0:00:00,25.5111,84.4946
5780,Bimgal,NULL,76,TRUE,2024-06-25 0:00:00,2024-06-25 0:00:00,18.7,78.4667
5782,Bimun,NULL,76,TRUE,2024-06-25 0:00:00,2024-06-25 0:00:00,34.0588,74.7539
5784,Bina,NULL,76,TRUE,2024-06-25 0:00:00,2024-06-25 0:00:00,26.0792,86.6326
5792,Bind,NULL,76,TRUE,2024-06-25 0:00:00,2024-06-25 0:00:00,25.3035,85.6869
5794,Bindki,NULL,76,TRUE,2024-06-25 0:00:00,2024-06-25 0:00:00,26.03,80.6
5815,Binka,NULL,76,TRUE,2024-06-25 0:00:00,2024-06-25 0:00:00,21.0263,83.812
5818,Binnaguri,NULL,76,TRUE,2024-06-25 0:00:00,2024-06-25 0:00:00,26.7641,89.0558
5829,Bir,NULL,76,TRUE,2024-06-25 0:00:00,2024-06-25 0:00:00,18.99,75.76
5846,Birdaban,NULL,76,TRUE,2024-06-25 0:00:00,2024-06-25 0:00:00,26.4012,84.9934
5851,Birhana,NULL,76,TRUE,2024-06-25 0:00:00,2024-06-25 0:00:00,25.4489,85.7054
5868,Birmitrapur,NULL,76,TRUE,2024-06-25 0:00:00,2024-06-25 0:00:00,22.4,84.7667
5869,Birnagar,NULL,76,TRUE,2024-06-25 0:00:00,2024-06-25 0:00:00,25.9785,87.111
5876,Birpur,NULL,76,TRUE,2024-06-25 0:00:00,2024-06-25 0:00:00,26.5082,87.0119
5877,Birpur,NULL,76,TRUE,2024-06-25 0:00:00,2024-06-25 0:00:00,25.5209,85.4614
5878,Birpur,NULL,76,TRUE,2024-06-25 0:00:00,2024-06-25 0:00:00,25.5181,86.0826
5879,Birpur,NULL,76,TRUE,2024-06-25 0:00:00,2024-06-25 0:00:00,26.5767,86.0379
5880,Birpur,NULL,76,TRUE,2024-06-25 0:00:00,2024-06-25 0:00:00,32.6617,74.9518
5881,Birpur Barapatti Pindraun,NULL,76,TRUE,2024-06-25 0:00:00,2024-06-25 0:00:00,26.5475,86.3898
5884,Birsinghpur,NULL,76,TRUE,2024-06-25 0:00:00,2024-06-25 0:00:00,24.7981,80.9739
5890,Birur,NULL,76,TRUE,2024-06-25 0:00:00,2024-06-25 0:00:00,13.5972,75.9717
5894,Bisaria,NULL,76,TRUE,2024-06-25 0:00:00,2024-06-25 0:00:00,25.9789,87.1003
5895,Bisaul,NULL,76,TRUE,2024-06-25 0:00:00,2024-06-25 0:00:00,26.6151,85.993
5904,Bishamagiri,NULL,76,TRUE,2024-06-25 0:00:00,2024-06-25 0:00:00,19.3849,84.4715
5905,Bishenpur,NULL,76,TRUE,2024-06-25 0:00:00,2024-06-25 0:00:00,24.6282,93.761
5907,Bishnah,NULL,76,TRUE,2024-06-25 0:00:00,2024-06-25 0:00:00,32.6106,74.8556
5908,Bishnupur,NULL,76,TRUE,2024-06-25 0:00:00,2024-06-25 0:00:00,23.075,87.317
5914,Bishunpur,NULL,76,TRUE,2024-06-25 0:00:00,2024-06-25 0:00:00,26.0868,86.6541
5915,Bishunpur,NULL,76,TRUE,2024-06-25 0:00:00,2024-06-25 0:00:00,26.1561,87.2711
5916,Bishunpur,NULL,76,TRUE,2024-06-25 0:00:00,2024-06-25 0:00:00,24.7631,85.682
5917,Bishunpur,NULL,76,TRUE,2024-06-25 0:00:00,2024-06-25 0:00:00,25.8029,85.9886
5918,Bishunpur,NULL,76,TRUE,2024-06-25 0:00:00,2024-06-25 0:00:00,25.5665,87.4435
5919,Bishunpur Hakimabad,NULL,76,TRUE,2024-06-25 0:00:00,2024-06-25 0:00:00,25.8453,85.8432
5920,Bishunpur Sundar,NULL,76,TRUE,2024-06-25 0:00:00,2024-06-25 0:00:00,26.0579,86.9833
5921,Bishunpura,NULL,76,TRUE,2024-06-25 0:00:00,2024-06-25 0:00:00,26.5436,84.4364
5934,Bistan,NULL,76,TRUE,2024-06-25 0:00:00,2024-06-25 0:00:00,21.6979,75.6657
5935,Bistaria,NULL,76,TRUE,2024-06-25 0:00:00,2024-06-25 0:00:00,26.1262,87.23
5938,Biswan,NULL,76,TRUE,2024-06-25 0:00:00,2024-06-25 0:00:00,27.5,81
5939,Biswanath Chariali,NULL,76,TRUE,2024-06-25 0:00:00,2024-06-25 0:00:00,26.7278,93.1517
5943,Bithan,NULL,76,TRUE,2024-06-25 0:00:00,2024-06-25 0:00:00,25.6954,86.2789
5944,Bithar,NULL,76,TRUE,2024-06-25 0:00:00,2024-06-25 0:00:00,26.6294,85.7697
5945,Bithauli,NULL,76,TRUE,2024-06-25 0:00:00,2024-06-25 0:00:00,26.0219,86.0793
6080,Bobbili,NULL,76,TRUE,2024-06-25 0:00:00,2024-06-25 0:00:00,18.5667,83.3667
6083,Bobil,NULL,76,TRUE,2024-06-25 0:00:00,2024-06-25 0:00:00,25.6269,86.8069
6085,Bobleshwar,NULL,76,TRUE,2024-06-25 0:00:00,2024-06-25 0:00:00,16.83,75.73
6106,Bochaha,NULL,76,TRUE,2024-06-25 0:00:00,2024-06-25 0:00:00,25.5675,85.7393
6118,Bodagudipadu,NULL,76,TRUE,2024-06-25 0:00:00,2024-06-25 0:00:00,14.7385,79.8602
6120,Boddikurapadu,NULL,76,TRUE,2024-06-25 0:00:00,2024-06-25 0:00:00,15.6591,79.7509
6123,Bodhan,NULL,76,TRUE,2024-06-25 0:00:00,2024-06-25 0:00:00,18.67,77.9
6124,Bodinayakkanur,NULL,76,TRUE,2024-06-25 0:00:00,2024-06-25 0:00:00,10.0101,77.3511
6125,Bodippatti,NULL,76,TRUE,2024-06-25 0:00:00,2024-06-25 0:00:00,10.5642,77.2336
6131,Bodupal,NULL,76,TRUE,2024-06-25 0:00:00,2024-06-25 0:00:00,17.4139,78.5783
6167,Boha,NULL,76,TRUE,2024-06-25 0:00:00,2024-06-25 0:00:00,29.8348,75.5237
6190,Bokakhat,NULL,76,TRUE,2024-06-25 0:00:00,2024-06-25 0:00:00,26.6402,93.6005
6191,Bokaro,NULL,76,TRUE,2024-06-25 0:00:00,2024-06-25 0:00:00,23.7871,85.9564
6192,Bokaro Steel City,NULL,76,TRUE,2024-06-25 0:00:00,2024-06-25 0:00:00,23.67,86.15
6236,Bolpur,NULL,76,TRUE,2024-06-25 0:00:00,2024-06-25 0:00:00,23.67,87.72
6265,Bomareddipalli,NULL,76,TRUE,2024-06-25 0:00:00,2024-06-25 0:00:00,18.7044,79.1568
6272,Bommagondanahalli,NULL,76,TRUE,2024-06-25 0:00:00,2024-06-25 0:00:00,13.8984,77.0733
6273,Bommarbettu,NULL,76,TRUE,2024-06-25 0:00:00,2024-06-25 0:00:00,13.339,74.8784
6274,Bommayapalaiyam,NULL,76,TRUE,2024-06-25 0:00:00,2024-06-25 0:00:00,11.9922,79.8499
6281,Bondada,NULL,76,TRUE,2024-06-25 0:00:00,2024-06-25 0:00:00,16.5295,81.4549
6294,Bongaigaon,NULL,76,TRUE,2024-06-25 0:00:00,2024-06-25 0:00:00,26.4769,90.5583
6346,Bora,NULL,76,TRUE,2024-06-25 0:00:00,2024-06-25 0:00:00,23.6585,76.8112
6370,Borgampad,NULL,76,TRUE,2024-06-25 0:00:00,2024-06-25 0:00:00,17.65,80.8667
6371,Borgaon,NULL,76,TRUE,2024-06-25 0:00:00,2024-06-25 0:00:00,16.42,74.58
6389,Boriguma,NULL,76,TRUE,2024-06-25 0:00:00,2024-06-25 0:00:00,19.0468,82.5532
6390,Borim,NULL,76,TRUE,2024-06-25 0:00:00,2024-06-25 0:00:00,15.3604,74.0004
6391,Borio,NULL,76,TRUE,2024-06-25 0:00:00,2024-06-25 0:00:00,25.0344,87.5925
6402,Borna,NULL,76,TRUE,2024-06-25 0:00:00,2024-06-25 0:00:00,25.4373,86.6172
6403,Borne,NULL,76,TRUE,2024-06-25 0:00:00,2024-06-25 0:00:00,25.5431,86.6999
6452,Botad,NULL,76,TRUE,2024-06-25 0:00:00,2024-06-25 0:00:00,22.17,71.67
6596,Bowringpet,NULL,76,TRUE,2024-06-25 0:00:00,2024-06-25 0:00:00,12.9912,78.178
6641,Brahmadesam,NULL,76,TRUE,2024-06-25 0:00:00,2024-06-25 0:00:00,11.5449,77.5803
6642,Brahmana Periya Agraharam,NULL,76,TRUE,2024-06-25 0:00:00,2024-06-25 0:00:00,11.369,77.7063
6643,Brahmanandapuram,NULL,76,TRUE,2024-06-25 0:00:00,2024-06-25 0:00:00,16.9583,82.0056
6646,Brahmapur,NULL,76,TRUE,2024-06-25 0:00:00,2024-06-25 0:00:00,19.315,84.7941
6654,Brajarajnagar,NULL,76,TRUE,2024-06-25 0:00:00,2024-06-25 0:00:00,21.8167,83.9167
6659,Bramhabarada,NULL,76,TRUE,2024-06-25 0:00:00,2024-06-25 0:00:00,20.6683,86.0747
6661,Bramhapuri,NULL,76,TRUE,2024-06-25 0:00:00,2024-06-25 0:00:00,20.6068,79.8644
6967,Bucheya,NULL,76,TRUE,2024-06-25 0:00:00,2024-06-25 0:00:00,26.3421,84.6642
6969,Buchireddipalem,NULL,76,TRUE,2024-06-25 0:00:00,2024-06-25 0:00:00,14.538,79.875
6992,Budalur,NULL,76,TRUE,2024-06-25 0:00:00,2024-06-25 0:00:00,10.7861,78.9864
6993,Budamangalam,NULL,76,TRUE,2024-06-25 0:00:00,2024-06-25 0:00:00,12.3792,79.2308
6996,Budaun,NULL,76,TRUE,2024-06-25 0:00:00,2024-06-25 0:00:00,28.05,79.12
6998,Buddayyakota,NULL,76,TRUE,2024-06-25 0:00:00,2024-06-25 0:00:00,13.8196,78.1729
6999,Buddh Gaya,NULL,76,TRUE,2024-06-25 0:00:00,2024-06-25 0:00:00,24.6981,84.9869
7005,Budha Theh,NULL,76,TRUE,2024-06-25 0:00:00,2024-06-25 0:00:00,31.5177,75.3009
7007,Budhlada,NULL,76,TRUE,2024-06-25 0:00:00,2024-06-25 0:00:00,29.93,75.57
7008,Budhma,NULL,76,TRUE,2024-06-25 0:00:00,2024-06-25 0:00:00,25.6451,86.8317
7009,Budhni,NULL,76,TRUE,2024-06-25 0:00:00,2024-06-25 0:00:00,22.7825,77.682
7010,Budili,NULL,76,TRUE,2024-06-25 0:00:00,2024-06-25 0:00:00,13.9353,77.7355
7012,Budipuram,NULL,76,TRUE,2024-06-25 0:00:00,2024-06-25 0:00:00,10.3606,78.0106
7016,Budwan,NULL,76,TRUE,2024-06-25 0:00:00,2024-06-25 0:00:00,25.7775,81.1681
7055,Bugganipalle,NULL,76,TRUE,2024-06-25 0:00:00,2024-06-25 0:00:00,15.4741,78.175
7062,Buguda,NULL,76,TRUE,2024-06-25 0:00:00,2024-06-25 0:00:00,19.8081,84.7908
7091,Bukkapatnam,NULL,76,TRUE,2024-06-25 0:00:00,2024-06-25 0:00:00,14.2,77.8
7092,Bukkarayasamudram,NULL,76,TRUE,2024-06-25 0:00:00,2024-06-25 0:00:00,14.6944,77.6381
7106,Bulandshahr,NULL,76,TRUE,2024-06-25 0:00:00,2024-06-25 0:00:00,28.4069,77.8497
7138,Bundala,NULL,76,TRUE,2024-06-25 0:00:00,2024-06-25 0:00:00,31.5333,74.9833
7139,Bundala,NULL,76,TRUE,2024-06-25 0:00:00,2024-06-25 0:00:00,31.1333,75.65
7141,Bundehra,NULL,76,TRUE,2024-06-25 0:00:00,2024-06-25 0:00:00,25.3776,86.7376
7142,Bundi,NULL,76,TRUE,2024-06-25 0:00:00,2024-06-25 0:00:00,25.44,75.64
7144,Bundu,NULL,76,TRUE,2024-06-25 0:00:00,2024-06-25 0:00:00,23.1609,85.5901
7168,Buram,NULL,76,TRUE,2024-06-25 0:00:00,2024-06-25 0:00:00,25.9739,86.3196
7202,Burhanpur,NULL,76,TRUE,2024-06-25 0:00:00,2024-06-25 0:00:00,21.3114,76.2289
7203,Burhar,NULL,76,TRUE,2024-06-25 0:00:00,2024-06-25 0:00:00,23.2149,81.532
7204,Burhia Dhanghatta,NULL,76,TRUE,2024-06-25 0:00:00,2024-06-25 0:00:00,25.9004,87.2852
7223,Burla,NULL,76,TRUE,2024-06-25 0:00:00,2024-06-25 0:00:00,21.5098,83.8726
7311,Buttar,NULL,76,TRUE,2024-06-25 0:00:00,2024-06-25 0:00:00,31.0038,75.3973
7312,Buttar Khurd,NULL,76,TRUE,2024-06-25 0:00:00,2024-06-25 0:00:00,30.725,75.275
7313,Buttayagudem,NULL,76,TRUE,2024-06-25 0:00:00,2024-06-25 0:00:00,17.2089,81.3014
7329,Buxar,NULL,76,TRUE,2024-06-25 0:00:00,2024-06-25 0:00:00,25.5605,83.9805
7348,Byadgi,NULL,76,TRUE,2024-06-25 0:00:00,2024-06-25 0:00:00,14.6733,75.4868
7349,Byahatti,NULL,76,TRUE,2024-06-25 0:00:00,2024-06-25 0:00:00,15.4468,75.2054
7354,Byatarayanpur,NULL,76,TRUE,2024-06-25 0:00:00,2024-06-25 0:00:00,13.0659,77.5922
7611,Calicut,NULL,76,TRUE,2024-06-25 0:00:00,2024-06-25 0:00:00,11.2588,75.7804
7752,Campiernagar,NULL,76,TRUE,2024-06-25 0:00:00,2024-06-25 0:00:00,27.029,83.2668
7888,Cannanore,NULL,76,TRUE,2024-06-25 0:00:00,2024-06-25 0:00:00,11.8745,75.3704
8618,Chabal Kalan,NULL,76,TRUE,2024-06-25 0:00:00,2024-06-25 0:00:00,31.4818,74.7927
8626,Chada,NULL,76,TRUE,2024-06-25 0:00:00,2024-06-25 0:00:00,17.4992,79.0756
8628,Chadchan,NULL,76,TRUE,2024-06-25 0:00:00,2024-06-25 0:00:00,17.3126,75.6581
8631,Chagalamarri,NULL,76,TRUE,2024-06-25 0:00:00,2024-06-25 0:00:00,14.9667,78.5833
8632,Chagallu,NULL,76,TRUE,2024-06-25 0:00:00,2024-06-25 0:00:00,16.9833,81.6667
8640,Chahatpur,NULL,76,TRUE,2024-06-25 0:00:00,2024-06-25 0:00:00,26.2331,87.5816
8648,Chailaha,NULL,76,TRUE,2024-06-25 0:00:00,2024-06-25 0:00:00,26.6738,84.8801
8649,Chainpur,NULL,76,TRUE,2024-06-25 0:00:00,2024-06-25 0:00:00,25.0345,83.5066
8650,Chainpura,NULL,76,TRUE,2024-06-25 0:00:00,2024-06-25 0:00:00,25.52,86.31
8651,Chaita,NULL,76,TRUE,2024-06-25 0:00:00,2024-06-25 0:00:00,25.7671,85.8792
8652,Chaital,NULL,76,TRUE,2024-06-25 0:00:00,2024-06-25 0:00:00,22.5106,88.7996
8660,Chak Habib,NULL,76,TRUE,2024-06-25 0:00:00,2024-06-25 0:00:00,25.7238,85.8789
8661,Chak Husaini,NULL,76,TRUE,2024-06-25 0:00:00,2024-06-25 0:00:00,25.5169,86.5566
8663,Chak Pahar,NULL,76,TRUE,2024-06-25 0:00:00,2024-06-25 0:00:00,25.7986,85.6218
8665,Chak That,NULL,76,TRUE,2024-06-25 0:00:00,2024-06-25 0:00:00,25.7347,86.034
8668,Chakai,NULL,76,TRUE,2024-06-25 0:00:00,2024-06-25 0:00:00,26.0884,87.6154
8669,Chakand,NULL,76,TRUE,2024-06-25 0:00:00,2024-06-25 0:00:00,24.8907,84.9761
8670,Chakapara,NULL,76,TRUE,2024-06-25 0:00:00,2024-06-25 0:00:00,22.63,88.35
8671,Chakdaha,NULL,76,TRUE,2024-06-25 0:00:00,2024-06-25 0:00:00,23.08,88.52
8674,Chakia,NULL,76,TRUE,2024-06-25 0:00:00,2024-06-25 0:00:00,26.416,85.0467
8675,Chakicherla,NULL,76,TRUE,2024-06-25 0:00:00,2024-06-25 0:00:00,15.1127,80.0366
8676,Chakkuvarakal,NULL,76,TRUE,2024-06-25 0:00:00,2024-06-25 0:00:00,8.9833,76.85
8677,Chakla Waini,NULL,76,TRUE,2024-06-25 0:00:00,2024-06-25 0:00:00,25.9081,85.6836
8678,Chaklasi,NULL,76,TRUE,2024-06-25 0:00:00,2024-06-25 0:00:00,22.65,72.93
8679,Chakpi Karong,NULL,76,TRUE,2024-06-25 0:00:00,2024-06-25 0:00:00,24.3167,93.9833
8680,Chakradharpur,NULL,76,TRUE,2024-06-25 0:00:00,2024-06-25 0:00:00,22.7,85.63
8681,Chakur,NULL,76,TRUE,2024-06-25 0:00:00,2024-06-25 0:00:00,18.5131,76.8753
8682,Chakwai,NULL,76,TRUE,2024-06-25 0:00:00,2024-06-25 0:00:00,25.0543,85.662
8685,Chalala,NULL,76,TRUE,2024-06-25 0:00:00,2024-06-25 0:00:00,21.42,71.17
8695,Chalgeri,NULL,76,TRUE,2024-06-25 0:00:00,2024-06-25 0:00:00,14.5652,75.7166
8697,Chalil,NULL,76,TRUE,2024-06-25 0:00:00,2024-06-25 0:00:00,11.7519,75.5959
8698,Chalkari,NULL,76,TRUE,2024-06-25 0:00:00,2024-06-25 0:00:00,23.758,85.954
8700,Challakere,NULL,76,TRUE,2024-06-25 0:00:00,2024-06-25 0:00:00,14.312,76.651
8702,Challapalle,NULL,76,TRUE,2024-06-25 0:00:00,2024-06-25 0:00:00,16.1167,80.9333
8708,Chaltabaria,NULL,76,TRUE,2024-06-25 0:00:00,2024-06-25 0:00:00,22.2347,88.5014
8710,Chalungalpadam,NULL,76,TRUE,2024-06-25 0:00:00,2024-06-25 0:00:00,9.549,76.3237
8714,Chamarru,NULL,76,TRUE,2024-06-25 0:00:00,2024-06-25 0:00:00,16.65,80.1333
8728,Champadanga,NULL,76,TRUE,2024-06-25 0:00:00,2024-06-25 0:00:00,22.83,87.96
8729,Champahati,NULL,76,TRUE,2024-06-25 0:00:00,2024-06-25 0:00:00,22.4043,88.4937
8731,Champapur,NULL,76,TRUE,2024-06-25 0:00:00,2024-06-25 0:00:00,26.8881,84.834
8733,Champdani,NULL,76,TRUE,2024-06-25 0:00:00,2024-06-25 0:00:00,22.802,88.346
8740,Champua,NULL,76,TRUE,2024-06-25 0:00:00,2024-06-25 0:00:00,22.0667,85.6658
8741,Chamrajnagar,NULL,76,TRUE,2024-06-25 0:00:00,2024-06-25 0:00:00,11.926,76.9402
8742,Chamtha,NULL,76,TRUE,2024-06-25 0:00:00,2024-06-25 0:00:00,25.5789,85.7734
8746,Chanasma,NULL,76,TRUE,2024-06-25 0:00:00,2024-06-25 0:00:00,23.72,72.12
8747,Chanaur,NULL,76,TRUE,2024-06-25 0:00:00,2024-06-25 0:00:00,25.851,86.6739
8751,Chand Chaur,NULL,76,TRUE,2024-06-25 0:00:00,2024-06-25 0:00:00,25.7276,85.7865
8752,Chanda,NULL,76,TRUE,2024-06-25 0:00:00,2024-06-25 0:00:00,19.95,79.3
8754,Chandankiari,NULL,76,TRUE,2024-06-25 0:00:00,2024-06-25 0:00:00,23.5781,86.3598
8755,Chandannagar,NULL,76,TRUE,2024-06-25 0:00:00,2024-06-25 0:00:00,22.87,88.38
8756,Chandauli,NULL,76,TRUE,2024-06-25 0:00:00,2024-06-25 0:00:00,25.8972,85.7161
8757,Chandera,NULL,76,TRUE,2024-06-25 0:00:00,2024-06-25 0:00:00,25.0829,78.9784
8758,Chanderi,NULL,76,TRUE,2024-06-25 0:00:00,2024-06-25 0:00:00,24.72,78.13
8759,Chandhaus,NULL,76,TRUE,2024-06-25 0:00:00,2024-06-25 0:00:00,25.2977,84.8595
8760,Chandi,NULL,76,TRUE,2024-06-25 0:00:00,2024-06-25 0:00:00,25.7296,87.5195
8761,Chandi,NULL,76,TRUE,2024-06-25 0:00:00,2024-06-25 0:00:00,22.3503,88.2828
8762,Chandia,NULL,76,TRUE,2024-06-25 0:00:00,2024-06-25 0:00:00,23.6565,80.7091
8763,Chandigarh,NULL,76,TRUE,2024-06-25 0:00:00,2024-06-25 0:00:00,30.75,76.78
8764,Chandili,NULL,76,TRUE,2024-06-25 0:00:00,2024-06-25 0:00:00,19.2467,83.4058
8765,Chandla,NULL,76,TRUE,2024-06-25 0:00:00,2024-06-25 0:00:00,25.0715,80.1929
8768,Chandpur,NULL,76,TRUE,2024-06-25 0:00:00,2024-06-25 0:00:00,25.5059,87.2488
8769,Chandpur,NULL,76,TRUE,2024-06-25 0:00:00,2024-06-25 0:00:00,22.4368,88.1711
8770,Chandpura,NULL,76,TRUE,2024-06-25 0:00:00,2024-06-25 0:00:00,25.4966,86.2104
8771,Chandragiri,NULL,76,TRUE,2024-06-25 0:00:00,2024-06-25 0:00:00,13.5833,79.3167
8772,Chandrakona,NULL,76,TRUE,2024-06-25 0:00:00,2024-06-25 0:00:00,22.73,87.52
8773,Chandralapadu,NULL,76,TRUE,2024-06-25 0:00:00,2024-06-25 0:00:00,16.715,80.2089
8774,Chandrawada,NULL,76,TRUE,2024-06-25 0:00:00,2024-06-25 0:00:00,21.6525,69.6746
8775,Chandreru,NULL,76,TRUE,2024-06-25 0:00:00,2024-06-25 0:00:00,17.098,81.9959
8776,Chandur,NULL,76,TRUE,2024-06-25 0:00:00,2024-06-25 0:00:00,16.98,79.06
8777,Chandwa,NULL,76,TRUE,2024-06-25 0:00:00,2024-06-25 0:00:00,23.6756,84.7401
8778,Chandwara,NULL,76,TRUE,2024-06-25 0:00:00,2024-06-25 0:00:00,24.393,85.4798
8779,Chang,NULL,76,TRUE,2024-06-25 0:00:00,2024-06-25 0:00:00,28.8808,76.2427
8780,Changamkari,NULL,76,TRUE,2024-06-25 0:00:00,2024-06-25 0:00:00,9.3667,76.5333
8782,Changanacheri,NULL,76,TRUE,2024-06-25 0:00:00,2024-06-25 0:00:00,9.4667,76.55
8806,Channagiri,NULL,76,TRUE,2024-06-25 0:00:00,2024-06-25 0:00:00,14.024,75.9258
8808,Channapatna,NULL,76,TRUE,2024-06-25 0:00:00,2024-06-25 0:00:00,12.6514,77.2067
8809,Channarayapatna,NULL,76,TRUE,2024-06-25 0:00:00,2024-06-25 0:00:00,12.902,76.364
8811,Channubanda,NULL,76,TRUE,2024-06-25 0:00:00,2024-06-25 0:00:00,17.0331,80.8056
8812,Chanp,NULL,76,TRUE,2024-06-25 0:00:00,2024-06-25 0:00:00,26.1951,84.39
8821,Chanwari,NULL,76,TRUE,2024-06-25 0:00:00,2024-06-25 0:00:00,23.1917,82.3542
8824,Chaoke,NULL,76,TRUE,2024-06-25 0:00:00,2024-06-25 0:00:00,30.1847,75.3362
8836,Chapalamadugu,NULL,76,TRUE,2024-06-25 0:00:00,2024-06-25 0:00:00,16.073,79.3775
8851,Chapra,NULL,76,TRUE,2024-06-25 0:00:00,2024-06-25 0:00:00,25.7848,84.7274
8852,Chapra,NULL,76,TRUE,2024-06-25 0:00:00,2024-06-25 0:00:00,23.5391,88.5467
8856,Charabidya,NULL,76,TRUE,2024-06-25 0:00:00,2024-06-25 0:00:00,22.3303,88.7702
8858,Charakunda,NULL,76,TRUE,2024-06-25 0:00:00,2024-06-25 0:00:00,16.6916,78.7054
8864,Charaut,NULL,76,TRUE,2024-06-25 0:00:00,2024-06-25 0:00:00,26.5322,85.7942
8873,Charipara,NULL,76,TRUE,2024-06-25 0:00:00,2024-06-25 0:00:00,20.45,84.4
8874,Chariyakulam,NULL,76,TRUE,2024-06-25 0:00:00,2024-06-25 0:00:00,9.6527,77.1226
8875,Charkhari,NULL,76,TRUE,2024-06-25 0:00:00,2024-06-25 0:00:00,25.4,79.75
8876,Charkhi Dadri,NULL,76,TRUE,2024-06-25 0:00:00,2024-06-25 0:00:00,28.59,76.27
8891,Charne,NULL,76,TRUE,2024-06-25 0:00:00,2024-06-25 0:00:00,26.1185,87.0754
8900,Charthawal,NULL,76,TRUE,2024-06-25 0:00:00,2024-06-25 0:00:00,29.55,77.5833
8904,Charuanwan,NULL,76,TRUE,2024-06-25 0:00:00,2024-06-25 0:00:00,25.1348,85.6812
8906,Chas,NULL,76,TRUE,2024-06-25 0:00:00,2024-06-25 0:00:00,23.63,86.17
8912,Chatayamangalam,NULL,76,TRUE,2024-06-25 0:00:00,2024-06-25 0:00:00,8.8421,76.8644
8930,Chatia,NULL,76,TRUE,2024-06-25 0:00:00,2024-06-25 0:00:00,26.5396,84.566
8934,Chatra,NULL,76,TRUE,2024-06-25 0:00:00,2024-06-25 0:00:00,24.2064,84.8708
8935,Chatra Gobraura,NULL,76,TRUE,2024-06-25 0:00:00,2024-06-25 0:00:00,26.4973,86.2179
8936,Chattamangalam,NULL,76,TRUE,2024-06-25 0:00:00,2024-06-25 0:00:00,11.296,75.915
8943,Chaugain,NULL,76,TRUE,2024-06-25 0:00:00,2024-06-25 0:00:00,25.4801,84.2328
8944,Chauhanpatti,NULL,76,TRUE,2024-06-25 0:00:00,2024-06-25 0:00:00,25.15,82.6
8947,Chaukhata,NULL,76,TRUE,2024-06-25 0:00:00,2024-06-25 0:00:00,25.0247,81.7375
8948,Chauki,NULL,76,TRUE,2024-06-25 0:00:00,2024-06-25 0:00:00,25.4573,86.4018
8949,Chauki Hasan Chauki Makhdum,NULL,76,TRUE,2024-06-25 0:00:00,2024-06-25 0:00:00,26.2333,84.4964
8954,Chausa,NULL,76,TRUE,2024-06-25 0:00:00,2024-06-25 0:00:00,25.5283,87.0322
8955,Chausa,NULL,76,TRUE,2024-06-25 0:00:00,2024-06-25 0:00:00,25.5149,83.897
8956,Chautapal,NULL,76,TRUE,2024-06-25 0:00:00,2024-06-25 0:00:00,17.2508,78.8972
8957,Chautham,NULL,76,TRUE,2024-06-25 0:00:00,2024-06-25 0:00:00,25.5439,86.6567
8958,Chavakkad,NULL,76,TRUE,2024-06-25 0:00:00,2024-06-25 0:00:00,10.582,76.041
8960,Chavara Gramam,NULL,76,TRUE,2024-06-25 0:00:00,2024-06-25 0:00:00,8.9633,76.5619
8961,Chavassheri,NULL,76,TRUE,2024-06-25 0:00:00,2024-06-25 0:00:00,11.9647,75.6176
8968,Chavuttahalli,NULL,76,TRUE,2024-06-25 0:00:00,2024-06-25 0:00:00,12.4202,78.2352
8969,Chawalhati,NULL,76,TRUE,2024-06-25 0:00:00,2024-06-25 0:00:00,26.4841,88.5677
8981,Chebrolu,NULL,76,TRUE,2024-06-25 0:00:00,2024-06-25 0:00:00,16.8206,81.4048
8982,Chebrolu,NULL,76,TRUE,2024-06-25 0:00:00,2024-06-25 0:00:00,16.1967,80.525
8993,Chegur,NULL,76,TRUE,2024-06-25 0:00:00,2024-06-25 0:00:00,17.1758,78.2298
8994,Chegurumomadi,NULL,76,TRUE,2024-06-25 0:00:00,2024-06-25 0:00:00,18.2361,79.1974
8998,Chekkal,NULL,76,TRUE,2024-06-25 0:00:00,2024-06-25 0:00:00,8.3653,77.1075
9011,Chelora,NULL,76,TRUE,2024-06-25 0:00:00,2024-06-25 0:00:00,11.8892,75.4293
9018,Chemancheri,NULL,76,TRUE,2024-06-25 0:00:00,2024-06-25 0:00:00,11.4116,75.735
9020,Chembagaramanpudur,NULL,76,TRUE,2024-06-25 0:00:00,2024-06-25 0:00:00,8.2461,77.4907
9021,Chembra,NULL,76,TRUE,2024-06-25 0:00:00,2024-06-25 0:00:00,11.042,75.911
9022,Chembrassheri,NULL,76,TRUE,2024-06-25 0:00:00,2024-06-25 0:00:00,11.1243,76.2582
9024,Chemmanam,NULL,76,TRUE,2024-06-25 0:00:00,2024-06-25 0:00:00,9.8072,76.2774
9025,Chemmaruthi,NULL,76,TRUE,2024-06-25 0:00:00,2024-06-25 0:00:00,8.7597,76.7435
9027,Chempalli,NULL,76,TRUE,2024-06-25 0:00:00,2024-06-25 0:00:00,12.0451,75.5074
9034,Chengam,NULL,76,TRUE,2024-06-25 0:00:00,2024-06-25 0:00:00,12.3112,78.7925
9035,Chengannur,NULL,76,TRUE,2024-06-25 0:00:00,2024-06-25 0:00:00,9.3157,76.6151
9036,Chengara,NULL,76,TRUE,2024-06-25 0:00:00,2024-06-25 0:00:00,10.129,76.373
9047,Chennai,NULL,76,TRUE,2024-06-25 0:00:00,2024-06-25 0:00:00,13.0825,80.275
9048,Chennamangalam,NULL,76,TRUE,2024-06-25 0:00:00,2024-06-25 0:00:00,10.1797,76.2097
9049,Chennampatti,NULL,76,TRUE,2024-06-25 0:00:00,2024-06-25 0:00:00,11.7011,77.6785
9051,Chennimalai,NULL,76,TRUE,2024-06-25 0:00:00,2024-06-25 0:00:00,11.1638,77.6039
9052,Chennirkara,NULL,76,TRUE,2024-06-25 0:00:00,2024-06-25 0:00:00,9.2487,76.7248
9053,Chennur,NULL,76,TRUE,2024-06-25 0:00:00,2024-06-25 0:00:00,14.5667,78.8
9054,Chennur,NULL,76,TRUE,2024-06-25 0:00:00,2024-06-25 0:00:00,14.1473,79.8477
9063,Cherakara,NULL,76,TRUE,2024-06-25 0:00:00,2024-06-25 0:00:00,8.8456,76.7164
9064,Cherakhera,NULL,76,TRUE,2024-06-25 0:00:00,2024-06-25 0:00:00,25.6869,86.4187
9065,Cheramkod,NULL,76,TRUE,2024-06-25 0:00:00,2024-06-25 0:00:00,11.6,76.3167
9067,Cheran,NULL,76,TRUE,2024-06-25 0:00:00,2024-06-25 0:00:00,25.361,85.5421
9068,Cheranallur,NULL,76,TRUE,2024-06-25 0:00:00,2024-06-25 0:00:00,10.1807,76.4792
9078,Cherial,NULL,76,TRUE,2024-06-25 0:00:00,2024-06-25 0:00:00,17.9264,78.9719
9081,Cherlagandlapalem,NULL,76,TRUE,2024-06-25 0:00:00,2024-06-25 0:00:00,16.0069,80.6117
9093,Chero,NULL,76,TRUE,2024-06-25 0:00:00,2024-06-25 0:00:00,25.2463,85.8169
9094,Cherrapunji,NULL,76,TRUE,2024-06-25 0:00:00,2024-06-25 0:00:00,25.284,91.721
9103,Cherukara,NULL,76,TRUE,2024-06-25 0:00:00,2024-06-25 0:00:00,9.4667,76.6
9104,Cherukolattur,NULL,76,TRUE,2024-06-25 0:00:00,2024-06-25 0:00:00,11.1881,75.9173
9105,Cherukunnu,NULL,76,TRUE,2024-06-25 0:00:00,2024-06-25 0:00:00,12.0041,75.3004
9106,Cherupazhasshi,NULL,76,TRUE,2024-06-25 0:00:00,2024-06-25 0:00:00,12.0916,75.4414
9107,Cherupulassheri,NULL,76,TRUE,2024-06-25 0:00:00,2024-06-25 0:00:00,10.8793,76.3148
9108,Cherutana Tekku,NULL,76,TRUE,2024-06-25 0:00:00,2024-06-25 0:00:00,9.323,76.4382
9109,Cheruvannur,NULL,76,TRUE,2024-06-25 0:00:00,2024-06-25 0:00:00,11.8284,75.7295
9110,Cheruvaranam,NULL,76,TRUE,2024-06-25 0:00:00,2024-06-25 0:00:00,9.6522,76.3179
9131,Chethakal,NULL,76,TRUE,2024-06-25 0:00:00,2024-06-25 0:00:00,9.4386,76.8322
9132,Cheticheri,NULL,76,TRUE,2024-06-25 0:00:00,2024-06-25 0:00:00,12.095,75.5451
9135,Chettikulam,NULL,76,TRUE,2024-06-25 0:00:00,2024-06-25 0:00:00,8.0943,77.5614
9136,Chettimangurichchi,NULL,76,TRUE,2024-06-25 0:00:00,2024-06-25 0:00:00,11.6393,77.8557
9137,Chettinayakkanpatti,NULL,76,TRUE,2024-06-25 0:00:00,2024-06-25 0:00:00,10.394,77.9754
9138,Chettipalaiyam,NULL,76,TRUE,2024-06-25 0:00:00,2024-06-25 0:00:00,11.1667,77.335
9139,Chettipalaiyam,NULL,76,TRUE,2024-06-25 0:00:00,2024-06-25 0:00:00,10.9125,77.037
9140,Chettipulam,NULL,76,TRUE,2024-06-25 0:00:00,2024-06-25 0:00:00,10.4743,79.7546
9141,Chettiyapatti,NULL,76,TRUE,2024-06-25 0:00:00,2024-06-25 0:00:00,10.424,77.8228
9145,Chevella,NULL,76,TRUE,2024-06-25 0:00:00,2024-06-25 0:00:00,17.3067,78.1353
9150,Chewara,NULL,76,TRUE,2024-06-25 0:00:00,2024-06-25 0:00:00,25.0756,85.9277
9152,Cheyyar,NULL,76,TRUE,2024-06-25 0:00:00,2024-06-25 0:00:00,12.662,79.5435
9153,Chhabila,NULL,76,TRUE,2024-06-25 0:00:00,2024-06-25 0:00:00,26.2556,85.9933
9155,Chhajli,NULL,76,TRUE,2024-06-25 0:00:00,2024-06-25 0:00:00,30.0348,75.828
9156,Chhanera,NULL,76,TRUE,2024-06-25 0:00:00,2024-06-25 0:00:00,21.623,76.372
9157,Chhapera,NULL,76,TRUE,2024-06-25 0:00:00,2024-06-25 0:00:00,23.8948,76.4538
9158,Chhapia,NULL,76,TRUE,2024-06-25 0:00:00,2024-06-25 0:00:00,26.0831,84.8447
9159,Chhapra,NULL,76,TRUE,2024-06-25 0:00:00,2024-06-25 0:00:00,26.4005,85.3721
9160,Chhapra Bahas,NULL,76,TRUE,2024-06-25 0:00:00,2024-06-25 0:00:00,26.7266,84.7912
9161,Chhara,NULL,76,TRUE,2024-06-25 0:00:00,2024-06-25 0:00:00,28.6957,76.7072
9162,Chhatapur,NULL,76,TRUE,2024-06-25 0:00:00,2024-06-25 0:00:00,26.2197,87.0048
9163,Chhatarpur,NULL,76,TRUE,2024-06-25 0:00:00,2024-06-25 0:00:00,24.55,79.3527
9164,Chhatarpur,NULL,76,TRUE,2024-06-25 0:00:00,2024-06-25 0:00:00,28.4565,77.0032
9165,Chhimluang,NULL,76,TRUE,2024-06-25 0:00:00,2024-06-25 0:00:00,24.5157,92.8222
9166,Chhindwara,NULL,76,TRUE,2024-06-25 0:00:00,2024-06-25 0:00:00,22.057,78.9396
9167,Chhota Udepur,NULL,76,TRUE,2024-06-25 0:00:00,2024-06-25 0:00:00,22.3056,74.0139
9168,Chhoti Sadri,NULL,76,TRUE,2024-06-25 0:00:00,2024-06-25 0:00:00,24.38,74.7
9175,Chianki,NULL,76,TRUE,2024-06-25 0:00:00,2024-06-25 0:00:00,24.0051,84.1098
9190,Chicacole,NULL,76,TRUE,2024-06-25 0:00:00,2024-06-25 0:00:00,18.3,83.9
9204,Chichli,NULL,76,TRUE,2024-06-25 0:00:00,2024-06-25 0:00:00,22.8336,78.8261
9205,Chicholi,NULL,76,TRUE,2024-06-25 0:00:00,2024-06-25 0:00:00,22.01,77.66
9217,Chidambaram,NULL,76,TRUE,2024-06-25 0:00:00,2024-06-25 0:00:00,11.407,79.6912
9228,Chik Ballapur,NULL,76,TRUE,2024-06-25 0:00:00,2024-06-25 0:00:00,13.43,77.72
9229,Chik Banavar,NULL,76,TRUE,2024-06-25 0:00:00,2024-06-25 0:00:00,13.0846,77.5014
9231,Chikhli Kalan,NULL,76,TRUE,2024-06-25 0:00:00,2024-06-25 0:00:00,22.2152,78.743
9232,Chikitigarh,NULL,76,TRUE,2024-06-25 0:00:00,2024-06-25 0:00:00,19.2023,84.6145
9233,Chikkala,NULL,76,TRUE,2024-06-25 0:00:00,2024-06-25 0:00:00,16.9698,81.5922
9234,Chikkarampalaiyam,NULL,76,TRUE,2024-06-25 0:00:00,2024-06-25 0:00:00,11.2416,76.9854
9235,Chikmagalur,NULL,76,TRUE,2024-06-25 0:00:00,2024-06-25 0:00:00,13.313,75.737
9236,Chiknayakanhalli,NULL,76,TRUE,2024-06-25 0:00:00,2024-06-25 0:00:00,13.4161,76.6206
9237,Chikni,NULL,76,TRUE,2024-06-25 0:00:00,2024-06-25 0:00:00,26.0075,86.7032
9238,Chikni,NULL,76,TRUE,2024-06-25 0:00:00,2024-06-25 0:00:00,26.0664,87.4406
9239,Chikodi,NULL,76,TRUE,2024-06-25 0:00:00,2024-06-25 0:00:00,16.43,74.6
